city,city_ascii,lat,lng,country,iso2,iso3,admin_name,capital,population,id
Tokyo,Tokyo,35.6897,139.6922,Japan,JP,JPN,Tōkyō,primary,37732000.0,1392685764
Jakarta,Jakarta,-6.175,106.8275,Indonesia,ID,IDN,Jakarta,primary,33756000.0,1360771077
Delhi,Delhi,28.61,77.23,India,IN,IND,Delhi,admin,32226000.0,1356872604
Guangzhou,Guangzhou,23.13,113.26,China,CN,CHN,Guangdong,admin,26940000.0,1156237133
Mumbai,Mumbai,19.0761,72.8775,India,IN,IND,Mahārāshtra,admin,24973000.0,1356226629
Manila,Manila,14.5958,120.9772,Philippines,PH,PHL,Manila,primary,24922000.0,1608618140
Shanghai,Shanghai,31.2286,121.4747,China,CN,CHN,Shanghai,admin,24073000.0,1156073548
Seoul,Seoul,37.56,126.99,"Korea, South",KR,KOR,Seoul,primary,23016000.0,1410836482
Cairo,Cairo,30.0444,31.2358,Egypt,EG,EGY,Al Qāhirah,primary,20296000.0,1818253931
Dhaka,Dhaka,23.7639,90.3889,Bangladesh,BD,BGD,Dhaka,primary,18627000.0,1050529279
Beijing,Beijing,39.9067,116.3975,China,CN,CHN,Beijing,primary,18522000.0,1156228865
Kolkāta,Kolkata,22.5675,88.37,India,IN,IND,West Bengal,admin,18502000.0,1356060520
Bangkok,Bangkok,13.7525,100.4942,Thailand,TH,THA,Krung Thep Maha Nakhon,primary,18007000.0,1764068610
Shenzhen,Shenzhen,22.5415,114.0596,China,CN,CHN,Guangdong,minor,17619000.0,1156158707
Moscow,Moscow,55.7558,37.6172,Russia,RU,RUS,Moskva,primary,17332000.0,1643318494
Lagos,Lagos,6.455,3.3841,Nigeria,NG,NGA,Lagos,minor,16637000.0,1566593751
Istanbul,Istanbul,41.0136,28.955,Turkey,TR,TUR,İstanbul,admin,16079000.0,1792756324
Karachi,Karachi,24.86,67.01,Pakistan,PK,PAK,Sindh,admin,15738000.0,1586129469
Bangalore,Bangalore,12.9789,77.5917,India,IN,IND,Karnātaka,admin,15386000.0,1356410365
Ōsaka,Osaka,34.6939,135.5022,Japan,JP,JPN,Ōsaka,admin,15126000.0,1392419823
Chengdu,Chengdu,30.66,104.0633,China,CN,CHN,Sichuan,admin,14645000.0,1156421555
Tehran,Tehran,35.6892,51.3889,Iran,IR,IRN,Tehrān,primary,14148000.0,1364305026
Kinshasa,Kinshasa,-4.3219,15.3119,Congo (Kinshasa),CD,COD,Kinshasa,primary,12836000.0,1180000363
Chennai,Chennai,13.0825,80.275,India,IN,IND,Tamil Nādu,admin,12395000.0,1356374944
Lahore,Lahore,31.5497,74.3436,Pakistan,PK,PAK,Punjab,admin,12306000.0,1586801463
Chongqing,Chongqing,29.5637,106.5504,China,CN,CHN,Chongqing,admin,12135000.0,1156936556
Baoding,Baoding,38.874,115.464,China,CN,CHN,Hebei,minor,11544036.0,1156256829
London,London,51.5072,-0.1275,United Kingdom,GB,GBR,"London, City of",primary,11262000.0,1826645935
Paris,Paris,48.8567,2.3522,France,FR,FRA,Île-de-France,primary,11060000.0,1250015082
Linyi,Linyi,35.1038,118.3564,China,CN,CHN,Shandong,,11018365.0,1156086320
Dongguan,Dongguan,23.021,113.752,China,CN,CHN,Guangdong,minor,10646000.0,1156478242
Hyderābād,Hyderabad,17.3617,78.4747,India,IN,IND,Telangāna,admin,10494000.0,1356871768
Tianjin,Tianjin,39.1336,117.2054,China,CN,CHN,Tianjin,admin,10368000.0,1156174046
Lima,Lima,-12.06,-77.0375,Peru,PE,PER,Lima,primary,10320000.0,1604728603
Wuhan,Wuhan,30.5934,114.3046,China,CN,CHN,Hubei,admin,10251000.0,1156117184
Nanyang,Nanyang,32.9987,112.5292,China,CN,CHN,Henan,,9713112.0,1156192287
Hangzhou,Hangzhou,30.267,120.153,China,CN,CHN,Zhejiang,admin,9523000.0,1156275243
Foshan,Foshan,23.0214,113.1216,China,CN,CHN,Guangdong,minor,9498863.0,1156738403
Nagoya,Nagoya,35.1833,136.9,Japan,JP,JPN,Aichi,admin,9197000.0,1392407472
Tongshan,Tongshan,34.204,117.284,China,CN,CHN,Jiangsu,minor,9083790.0,1156241678
Luanda,Luanda,-8.8383,13.2344,Angola,AO,AGO,Luanda,primary,9051000.0,1024949724
Zhoukou,Zhoukou,33.625,114.6418,China,CN,CHN,Henan,minor,9026015.0,1156272098
Ganzhou,Ganzhou,25.831,114.933,China,CN,CHN,Jiangxi,minor,8970014.0,1156832475
Heze,Heze,35.2343,115.4796,China,CN,CHN,Shandong,minor,8795939.0,1156225008
Quanzhou,Quanzhou,24.8744,118.6757,China,CN,CHN,Fujian,minor,8782285.0,1156829655
Johannesburg,Johannesburg,-26.2044,28.0456,South Africa,ZA,ZAF,Gauteng,admin,8500000.0,1710550792
Chicago,Chicago,41.8375,-87.6866,United States,US,USA,Illinois,,8497759.0,1840000494
Nanjing,Nanjing,32.0608,118.7789,China,CN,CHN,Jiangsu,admin,8422000.0,1156644065
Jining,Jining,35.4151,116.5871,China,CN,CHN,Shandong,,8357897.0,1156504601
Hanoi,Hanoi,21.0,105.85,Vietnam,VN,VNM,Hà Nội,primary,8246600.0,1704413791
Pune,Pune,18.5203,73.8567,India,IN,IND,Mahārāshtra,,8231000.0,1356081074
Fuyang,Fuyang,32.89,115.814,China,CN,CHN,Anhui,,8200264.0,1156248008
Ahmedabad,Ahmedabad,23.0225,72.5714,India,IN,IND,Gujarāt,minor,8009000.0,1356304381
Bogotá,Bogota,4.7111,-74.0722,Colombia,CO,COL,Bogotá,primary,7968095.0,1170483426
Shenyang,Shenyang,41.8025,123.4281,China,CN,CHN,Liaoning,admin,7964000.0,1156309382
Khartoum,Khartoum,15.6,32.5,Sudan,SD,SDN,Khartoum,primary,7869000.0,1729268475
Shangqiu,Shangqiu,34.415,115.656,China,CN,CHN,Henan,,7816831.0,1156805441
Cangzhou,Cangzhou,38.3047,116.8387,China,CN,CHN,Hebei,minor,7300783.0,1156698069
Riyadh,Riyadh,24.6333,46.7167,Saudi Arabia,SA,SAU,Ar Riyāḑ,primary,7237000.0,1682999334
Santiago,Santiago,-33.4372,-70.6506,Chile,CL,CHL,Región Metropolitana,primary,7171000.0,1152554349
Xingtai,Xingtai,37.0717,114.5048,China,CN,CHN,Hebei,,7111106.0,1156294952
Zhumadian,Zhumadian,33.014,114.022,China,CN,CHN,Henan,,7008427.0,1156184822
Chattogram,Chattogram,22.335,91.8325,Bangladesh,BD,BGD,Chattogram,admin,7000000.0,1050830722
Surabaya,Surabaya,-7.2458,112.7378,Indonesia,ID,IDN,Jawa Timur,admin,6998000.0,1360484663
Zhanjiang,Zhanjiang,21.2701,110.3575,China,CN,CHN,Guangdong,minor,6981236.0,1156502170
Bijie,Bijie,27.284,105.292,China,CN,CHN,Guizhou,,6899636.0,1156018927
Yancheng,Yancheng,33.3482,120.1626,China,CN,CHN,Jiangsu,minor,6709629.0,1156995410
Hengyang,Hengyang,26.894,112.572,China,CN,CHN,Hunan,,6645243.0,1156696884
Zunyi,Zunyi,27.722,107.031,China,CN,CHN,Guizhou,,6606675.0,1156539782
Shaoyang,Shaoyang,27.2395,111.4679,China,CN,CHN,Hunan,,6563520.0,1156310366
Sūrat,Surat,21.1702,72.8311,India,IN,IND,Gujarāt,,6538000.0,1356758738
Shangrao,Shangrao,28.4551,117.9431,China,CN,CHN,Jiangxi,minor,6435300.0,1156405492
Xinyang,Xinyang,32.149,114.091,China,CN,CHN,Henan,,6234401.0,1156273453
Madrid,Madrid,40.4169,-3.7033,Spain,ES,ESP,Madrid,primary,6211000.0,1724616994
Baghdad,Baghdad,33.3153,44.3661,Iraq,IQ,IRQ,Baghdād,primary,6183000.0,1368596238
Maoming,Maoming,21.6627,110.9255,China,CN,CHN,Guangdong,minor,6174050.0,1156568722
Jieyang,Jieyang,23.551,116.3727,China,CN,CHN,Guangdong,minor,6089400.0,1156260378
Miami,Miami,25.784,-80.2101,United States,US,USA,Florida,,6080145.0,1840015149
Singapore,Singapore,1.3,103.8,Singapore,SG,SGP,,primary,5983000.0,1702341327
Houston,Houston,29.786,-95.3885,United States,US,USA,Texas,,5970127.0,1840020925
Liaocheng,Liaocheng,36.4559,115.9852,China,CN,CHN,Shandong,minor,5952128.0,1156006600
Huanggang,Huanggang,30.4537,114.8724,China,CN,CHN,Hubei,minor,5882719.0,1156200037
Dalian,Dalian,38.9,121.6,China,CN,CHN,Liaoning,,5871474.0,1156175472
Dallas,Dallas,32.7935,-96.7667,United States,US,USA,Texas,,5830932.0,1840019440
Qingdao,Qingdao,36.0669,120.3827,China,CN,CHN,Shandong,minor,5818255.0,1156112588
Yulin,Yulin,22.654,110.181,China,CN,CHN,Guangxi,minor,5796766.0,1156901312
Douala,Douala,4.05,9.7,Cameroon,CM,CMR,Littoral,admin,5768400.0,1120494607
Qujing,Qujing,25.491,103.796,China,CN,CHN,Yunnan,,5765775.0,1156747998
Nangandao,Nangandao,35.3036,113.9268,China,CN,CHN,Henan,minor,5708191.0,1156127660
Philadelphia,Philadelphia,40.0077,-75.1339,United States,US,USA,Pennsylvania,,5683533.0,1840000673
Pudong,Pudong,31.2347,121.5064,China,CN,CHN,Shanghai,minor,5681512.0,1156644508
Toronto,Toronto,43.7417,-79.3733,Canada,CA,CAN,Ontario,admin,5647656.0,1124279679
Zhengzhou,Zhengzhou,34.764,113.684,China,CN,CHN,Henan,admin,5621593.0,1156183137
Dezhou,Dezhou,37.436,116.359,China,CN,CHN,Shandong,minor,5611194.0,1156524080
Nanchong,Nanchong,30.8372,106.1106,China,CN,CHN,Sichuan,minor,5607565.0,1156762337
Jinan,Jinan,36.6702,117.0207,China,CN,CHN,Shandong,admin,5606374.0,1156972469
Giza,Giza,29.987,31.2118,Egypt,EG,EGY,Al Jīzah,admin,5598402.0,1818925479
Nairobi,Nairobi,-1.2864,36.8172,Kenya,KE,KEN,Nairobi City,primary,5545000.0,1404000661
Guadalajara,Guadalajara,20.6767,-103.3475,Mexico,MX,MEX,Jalisco,admin,5525000.0,1484950208
Ankara,Ankara,39.93,32.85,Turkey,TR,TUR,Ankara,primary,5503985.0,1792572891
Langfang,Langfang,39.5383,116.6835,China,CN,CHN,Hebei,minor,5464087.0,1156109017
Dazhou,Dazhou,31.2093,107.4678,China,CN,CHN,Sichuan,minor,5385422.0,1156834076
Monterrey,Monterrey,25.6667,-100.3,Mexico,MX,MEX,Nuevo León,admin,5341171.0,1484559591
Suzhou,Suzhou,33.6333,116.9683,China,CN,CHN,Anhui,,5324476.0,1156871297
Yongzhou,Yongzhou,26.42,111.613,China,CN,CHN,Hunan,,5289824.0,1156694479
Changde,Changde,29.031,111.699,China,CN,CHN,Hunan,minor,5279102.0,1156449091
Xiangyang,Xiangyang,32.01,112.122,China,CN,CHN,Hubei,minor,5260951.0,1156107325
Rangoon,Rangoon,16.795,96.16,Burma,MM,MMR,Yangon,primary,5209541.0,1104616656
Atlanta,Atlanta,33.7628,-84.422,United States,US,USA,Georgia,admin,5180179.0,1840013660
Washington,Washington,38.9047,-77.0163,United States,US,USA,District of Columbia,primary,5116378.0,1840006060
Zhaotong,Zhaotong,27.338,103.717,China,CN,CHN,Yunnan,,5092611.0,1156924687
Zhangzhou,Zhangzhou,24.513,117.647,China,CN,CHN,Fujian,minor,5054328.0,1156241637
Melbourne,Melbourne,-37.8142,144.9631,Australia,AU,AUS,Victoria,admin,5031195.0,1036533631
Yichun,Yichun,27.816,114.417,China,CN,CHN,Jiangxi,minor,5007702.0,1156229590
Bozhou,Bozhou,33.8626,115.7742,China,CN,CHN,Anhui,,4996844.0,1156356860
Suqian,Suqian,33.9331,118.2831,China,CN,CHN,Jiangsu,,4986192.0,1156212349
Abidjan,Abidjan,5.3167,-4.0333,Côte d’Ivoire,CI,CIV,Abidjan,primary,4980000.0,1384207980
Guilin,Guilin,25.275,110.296,China,CN,CHN,Guangxi,minor,4931137.0,1156235364
Pingdingshan,Pingdingshan,33.735,113.2999,China,CN,CHN,Henan,,4904701.0,1156735124
Berlin,Berlin,52.52,13.405,Germany,DE,DEU,Berlin,primary,4890363.0,1276451290
Alexandria,Alexandria,31.1975,29.8925,Egypt,EG,EGY,Al Iskandarīyah,admin,4870000.0,1818695837
Mianyang,Mianyang,31.468,104.679,China,CN,CHN,Sichuan,minor,4868243.0,1156417758
Sydney,Sydney,-33.8678,151.21,Australia,AU,AUS,New South Wales,admin,4840600.0,1036074917
Huanglongsi,Huanglongsi,34.795,114.345,China,CN,CHN,Henan,,4824016.0,1156198356
Barcelona,Barcelona,41.3828,2.1769,Spain,ES,ESP,Catalonia,admin,4800000.0,1724594040
Yuncheng,Yuncheng,35.0267,111.007,China,CN,CHN,Shanxi,,4774508.0,1156705644
Changsha,Changsha,28.228,112.939,China,CN,CHN,Hunan,admin,4766296.0,1156961497
Jeddah,Jeddah,21.5433,39.1728,Saudi Arabia,SA,SAU,Makkah al Mukarramah,,4697000.0,1682926944
Weinan,Weinan,34.5206,109.471,China,CN,CHN,Shaanxi,minor,4688744.0,1156903687
Chenzhou,Chenzhou,25.77,113.016,China,CN,CHN,Hunan,minor,4667134.0,1156291915
Jiangmen,Jiangmen,22.5789,113.0815,China,CN,CHN,Guangdong,minor,4630300.0,1156105613
Jiujiang,Jiujiang,29.661,115.954,China,CN,CHN,Jiangxi,minor,4600276.0,1156206041
Xinpu,Xinpu,34.5966,119.2214,China,CN,CHN,Jiangsu,minor,4599360.0,1156035381
Yibin,Yibin,28.752,104.643,China,CN,CHN,Sichuan,minor,4588804.0,1156107603
Huaihua,Huaihua,27.5698,110.0016,China,CN,CHN,Hunan,,4587594.0,1156353465
Yangzhou,Yangzhou,32.3912,119.4363,China,CN,CHN,Jiangsu,,4559797.0,1156818601
Taizhou,Taizhou,32.4567,119.9229,China,CN,CHN,Jiangsu,minor,4512762.0,1156119229
Kunming,Kunming,25.0464,102.7094,China,CN,CHN,Yunnan,admin,4422686.0,1156477539
Yiyang,Yiyang,28.5549,112.356,China,CN,CHN,Hunan,,4413800.0,1156218615
Changchun,Changchun,43.897,125.326,China,CN,CHN,Jilin,admin,4408154.0,1156078103
Jiangguanchi,Jiangguanchi,34.0244,113.8201,China,CN,CHN,Henan,minor,4379998.0,1156235735
Meizhou,Meizhou,24.289,116.122,China,CN,CHN,Guangdong,minor,4378800.0,1156361028
Ürümqi,Urumqi,43.8225,87.6125,China,CN,CHN,Xinjiang,admin,4335017.0,1156051276
Suzhou,Suzhou,31.3,120.6194,China,CN,CHN,Jiangsu,minor,4330000.0,1156029196
Boston,Boston,42.3188,-71.0852,United States,US,USA,Massachusetts,admin,4328315.0,1840000455
İzmir,Izmir,38.42,27.14,Turkey,TR,TUR,İzmir,admin,4320519.0,1792725579
Guigang,Guigang,23.112,109.599,China,CN,CHN,Guangxi,minor,4316262.0,1156895251
Shantou,Shantou,23.354,116.682,China,CN,CHN,Guangdong,minor,4312192.0,1156457499
Kabul,Kabul,34.5253,69.1783,Afghanistan,AF,AFG,Kābul,primary,4273156.0,1004993580
Xiaoganzhan,Xiaoganzhan,30.918,113.957,China,CN,CHN,Hubei,,4270371.0,1156002290
Bamako,Bamako,12.6392,-8.0028,Mali,ML,MLI,Bamako,primary,4227569.0,1466965925
Luzhou,Luzhou,28.871,105.442,China,CN,CHN,Sichuan,minor,4218427.0,1156582079
Hefei,Hefei,31.8206,117.2273,China,CN,CHN,Anhui,admin,4216940.0,1156332710
Hengshui,Hengshui,37.739,115.669,China,CN,CHN,Hebei,minor,4212933.0,1156803028
Fortaleza,Fortaleza,-3.7275,-38.5275,Brazil,BR,BRA,Ceará,admin,4167996.0,1076567885
Anqing,Anqing,30.5318,117.1153,China,CN,CHN,Anhui,minor,4165284.0,1156238875
Liuzhou,Liuzhou,24.3264,109.4281,China,CN,CHN,Guangxi,minor,4157934.0,1156360785
Zhangjiakou,Zhangjiakou,40.769,114.886,China,CN,CHN,Hebei,minor,4118908.0,1156800221
Zhaoqing,Zhaoqing,23.05,112.4667,China,CN,CHN,Guangdong,minor,4113594.0,1156170144
Shijiazhuang,Shijiazhuang,38.0425,114.51,China,CN,CHN,Hebei,admin,4098243.0,1156217541
Ningbo,Ningbo,29.8603,121.6245,China,CN,CHN,Zhejiang,minor,4087523.0,1156170787
Qiqihar,Qiqihar,47.3549,123.9182,China,CN,CHN,Heilongjiang,minor,4067489.0,1156775905
Phoenix,Phoenix,33.5722,-112.0892,United States,US,USA,Arizona,admin,4064275.0,1840020568
Fuzhou,Fuzhou,27.949,116.358,China,CN,CHN,Jiangxi,,4047200.0,1156915325
Chifeng,Chifeng,42.257,118.888,China,CN,CHN,Inner Mongolia,minor,4035967.0,1156277458
Xiaoxita,Xiaoxita,30.692,111.287,China,CN,CHN,Hubei,minor,4017607.0,1156764447
Amman,Amman,31.9497,35.9328,Jordan,JO,JOR,Al ‘Āşimah,primary,4007526.0,1400522593
Chuzhou,Chuzhou,32.256,118.333,China,CN,CHN,Anhui,,3987054.0,1156036420
Linfen,Linfen,36.088,111.519,China,CN,CHN,Shanxi,,3976481.0,1156416074
Qingyuan,Qingyuan,23.682,113.056,China,CN,CHN,Guangdong,minor,3969473.0,1156135890
Xianyang,Xianyang,34.3299,108.7088,China,CN,CHN,Shaanxi,minor,3959842.0,1156120117
Loudi,Loudi,27.6998,111.9944,China,CN,CHN,Hunan,,3931800.0,1156010654
Binzhou,Binzhou,37.383,117.971,China,CN,CHN,Shandong,,3928568.0,1156564962
Zhuzhou,Zhuzhou,27.829,113.133,China,CN,CHN,Hunan,minor,3902738.0,1156041962
Taiyuan,Taiyuan,37.8704,112.5497,China,CN,CHN,Shanxi,admin,3875053.0,1156632014
Nanning,Nanning,22.8167,108.3275,China,CN,CHN,Guangxi,admin,3837978.0,1156605439
Harbin,Harbin,45.7576,126.6409,China,CN,CHN,Heilongjiang,admin,3830000.0,1156241528
Abuja,Abuja,9.0667,7.4833,Nigeria,NG,NGA,Federal Capital Territory,primary,3770000.0,1566342270
Yokohama,Yokohama,35.4442,139.6381,Japan,JP,JPN,Kanagawa,admin,3757630.0,1392118339
Suihua,Suihua,46.654,126.969,China,CN,CHN,Heilongjiang,minor,3756167.0,1156235493
Zaozhuang,Zaozhuang,34.8109,117.3238,China,CN,CHN,Shandong,,3729140.0,1156796454
Detroit,Detroit,42.3834,-83.1024,United States,US,USA,Michigan,,3725908.0,1840003971
Xiamen,Xiamen,24.4796,118.0889,China,CN,CHN,Fujian,minor,3707090.0,1156212809
Neijiang,Neijiang,29.5802,105.058,China,CN,CHN,Sichuan,minor,3702847.0,1156516335
Montréal,Montreal,45.5089,-73.5617,Canada,CA,CAN,Quebec,,3675219.0,1124586170
Fuzhou,Fuzhou,26.0743,119.2964,China,CN,CHN,Fujian,admin,3671192.0,1156188037
Baicheng,Baicheng,23.903,106.619,China,CN,CHN,Guangxi,minor,3669400.0,1156981113
Wuhu,Wuhu,31.3526,118.4331,China,CN,CHN,Anhui,minor,3644420.0,1156315512
Yulinshi,Yulinshi,38.2858,109.7341,China,CN,CHN,Shaanxi,,3634750.0,1156280672
Medan,Medan,3.5894,98.6739,Indonesia,ID,IDN,Sumatera Utara,admin,3632000.0,1360543171
Wenzhou,Wenzhou,27.9938,120.6993,China,CN,CHN,Zhejiang,,3604446.0,1156188829
Changzhou,Changzhou,31.811,119.974,China,CN,CHN,Jiangsu,minor,3601079.0,1156185511
Puyang,Puyang,35.7627,115.0292,China,CN,CHN,Henan,minor,3598740.0,1156431924
Jiaozuo,Jiaozuo,35.2157,113.2419,China,CN,CHN,Henan,,3590700.0,1156157854
Nanchang,Nanchang,28.683,115.858,China,CN,CHN,Jiangxi,admin,3576547.0,1156198892
Seattle,Seattle,47.6211,-122.3244,United States,US,USA,Washington,,3561397.0,1840021117
Ibadan,Ibadan,7.3964,3.9167,Nigeria,NG,NGA,Oyo,admin,3552000.0,1566366407
Casablanca,Casablanca,33.5333,-7.5833,Morocco,MA,MAR,Casablanca-Settat,admin,3499000.0,1504175315
Kumasi,Kumasi,6.7,-1.625,Ghana,GH,GHA,Ashanti,admin,3490030.0,1288181103
Deyang,Deyang,31.127,104.398,China,CN,CHN,Sichuan,minor,3456161.0,1156127147
Busan,Busan,35.18,129.075,"Korea, South",KR,KOR,Busan,admin,3453198.0,1410601465
Hohhot,Hohhot,40.842,111.749,China,CN,CHN,Inner Mongolia,admin,3446100.0,1156210167
Hechi,Hechi,24.693,108.085,China,CN,CHN,Guangxi,minor,3417945.0,1156167204
Algiers,Algiers,36.7539,3.0589,Algeria,DZ,DZA,Alger,primary,3415811.0,1012973369
Tangshan,Tangshan,39.6294,118.1739,China,CN,CHN,Hebei,,3399231.0,1156904299
Shiyan,Shiyan,32.629,110.7987,China,CN,CHN,Hubei,minor,3398000.0,1156383921
Lucknow,Lucknow,26.85,80.95,India,IN,IND,Uttar Pradesh,admin,3382000.0,1356891790
Mashhad,Mashhad,36.3264,59.5433,Iran,IR,IRN,Khorāsān-e Raẕavī,admin,3372090.0,1364123206
Boankra,Boankra,6.6944,-1.4028,Ghana,GH,GHA,Ashanti,,3348000.0,1288164978
Dubai,Dubai,25.2631,55.2972,United Arab Emirates,AE,ARE,Dubayy,admin,3331420.0,1784736618
Anshan,Anshan,41.108,122.994,China,CN,CHN,Liaoning,,3325372.0,1156901825
Baojishi,Baojishi,34.363,107.238,China,CN,CHN,Shaanxi,,3321853.0,1156101096
Qinzhou,Qinzhou,21.981,108.654,China,CN,CHN,Guangxi,minor,3304400.0,1156106602
Guiyang,Guiyang,26.647,106.63,China,CN,CHN,Guizhou,admin,3299724.0,1156932620
Bengbu,Bengbu,32.917,117.389,China,CN,CHN,Anhui,,3296408.0,1156440668
Bazhou,Bazhou,31.868,106.748,China,CN,CHN,Sichuan,minor,3283148.0,1156271365
Suining,Suining,30.533,105.593,China,CN,CHN,Sichuan,minor,3252619.0,1156655650
Wuxi,Wuxi,31.491,120.312,China,CN,CHN,Jiangsu,minor,3245179.0,1156019650
Hanzhong,Hanzhong,33.0664,107.0232,China,CN,CHN,Shaanxi,,3211462.0,1156382678
Putian,Putian,25.4526,119.0078,China,CN,CHN,Fujian,minor,3210714.0,1156811601
Zhenjiang,Zhenjiang,32.188,119.424,China,CN,CHN,Jiangsu,minor,3210418.0,1156934125
Faisalabad,Faisalabad,31.4167,73.0911,Pakistan,PK,PAK,Punjab,minor,3203846.0,1586323916
Changzhi,Changzhi,36.195,113.117,China,CN,CHN,Shanxi,minor,3180884.0,1156057944
Tongren,Tongren,27.7316,109.1895,China,CN,CHN,Guizhou,,3168800.0,1156803442
Leshan,Leshan,29.552,103.766,China,CN,CHN,Sichuan,,3160168.0,1156203130
Qinhuangdao,Qinhuangdao,39.8882,119.5202,China,CN,CHN,Hebei,,3146300.0,1156091093
Jaipur,Jaipur,26.9,75.8,India,IN,IND,Rājasthān,admin,3073350.0,1356293537
Xinzhou,Xinzhou,38.416,112.734,China,CN,CHN,Shanxi,minor,3067501.0,1156617534
Lanzhou,Lanzhou,36.0606,103.8268,China,CN,CHN,Gansu,admin,3067141.0,1156280566
Wuzhou,Wuzhou,23.4767,111.279,China,CN,CHN,Guangxi,minor,3061100.0,1156620133
Athens,Athens,37.9842,23.7281,Greece,GR,GRC,Attikí,primary,3059764.0,1300715560
Taichung,Taichung,24.1439,120.6794,Taiwan,TW,TWN,Taichung,admin,3033885.0,1158689622
Huainan,Huainan,32.6314,117.0194,China,CN,CHN,Anhui,,3033528.0,1156877299
Budapest,Budapest,47.4925,19.0514,Hungary,HU,HUN,Budapest,primary,2997958.0,1348611435
Qincheng,Qincheng,34.5809,105.7311,China,CN,CHN,Gansu,minor,2984659.0,1156104017
Rizhao,Rizhao,35.417,119.527,China,CN,CHN,Shandong,minor,2968365.0,1156032841
Sanaa,Sanaa,15.3483,44.2064,Yemen,YE,YEM,Amānat al ‘Āşimah,primary,2957000.0,1887750814
Tashkent,Tashkent,41.3111,69.2797,Uzbekistan,UZ,UZB,Toshkent,primary,2956384.0,1860331871
Kyiv,Kyiv,50.45,30.5233,Ukraine,UA,UKR,"Kyiv, Misto",primary,2952301.0,1804382913
Meishan,Meishan,30.0771,103.8484,China,CN,CHN,Sichuan,,2950545.0,1156185501
Incheon,Incheon,37.4833,126.6333,"Korea, South",KR,KOR,Incheon,admin,2936117.0,1410160313
Birmingham,Birmingham,52.48,-1.9025,United Kingdom,GB,GBR,Birmingham,,2919600.0,1826423213
Ningde,Ningde,26.6662,119.5477,China,CN,CHN,Fujian,minor,2910000.0,1156909802
Zhongshan,Zhongshan,22.517,113.3925,China,CN,CHN,Guangdong,minor,2909633.0,1156579621
Weihai,Weihai,37.5133,122.1205,China,CN,CHN,Shandong,minor,2906548.0,1156473300
Bursa,Bursa,40.1833,29.05,Turkey,TR,TUR,Bursa,admin,2901396.0,1792903330
Minneapolis,Minneapolis,44.9635,-93.2678,United States,US,USA,Minnesota,,2892569.0,1840007830
Haikou,Haikou,20.0186,110.3488,China,CN,CHN,Hainan,admin,2873358.0,1156183327
Tongliao,Tongliao,43.654,122.243,China,CN,CHN,Inner Mongolia,minor,2873168.0,1156358686
Chaoyang,Chaoyang,41.571,120.453,China,CN,CHN,Liaoning,,2872857.0,1156706927
Pyongyang,Pyongyang,39.0167,125.7475,"Korea, North",KP,PRK,P’yŏngyang,primary,2863000.0,1408738594
Tampa,Tampa,27.9945,-82.4447,United States,US,USA,Florida,,2861173.0,1840015982
Shaoguan,Shaoguan,24.811,113.597,China,CN,CHN,Guangdong,minor,2855131.0,1156617066
Heyuan,Heyuan,23.7443,114.7002,China,CN,CHN,Guangdong,minor,2837686.0,1156665165
Brasília,Brasilia,-15.7939,-47.8828,Brazil,BR,BRA,Distrito Federal,primary,2817068.0,1076144436
Omdurman,Omdurman,15.65,32.4833,Sudan,SD,SDN,Khartoum,,2805396.0,1729912179
Malang,Malang,-7.98,112.62,Indonesia,ID,IDN,Jawa Timur,,2795209.0,1360141408
Stuttgart,Stuttgart,48.7775,9.18,Germany,DE,DEU,Baden-Württemberg,admin,2787724.0,1276171358
Daqing,Daqing,46.589,125.104,China,CN,CHN,Heilongjiang,minor,2781562.0,1156403962
Rome,Rome,41.8933,12.4828,Italy,IT,ITA,Lazio,primary,2748109.0,1380382862
Brooklyn,Brooklyn,40.6501,-73.9496,United States,US,USA,New York,,2736074.0,1840034030
Kaohsiung,Kaohsiung,22.615,120.2975,Taiwan,TW,TWN,Kaohsiung,admin,2733964.0,1158331334
Xiangtan,Xiangtan,27.8313,112.9454,China,CN,CHN,Hunan,,2726181.0,1156195684
Longyan,Longyan,25.076,117.017,China,CN,CHN,Fujian,minor,2723637.0,1156012979
Baotou,Baotou,40.6213,109.9532,China,CN,CHN,Inner Mongolia,,2709378.0,1156032751
Handan,Handan,36.601,114.487,China,CN,CHN,Hebei,minor,2708015.0,1156957080
Jinzhou,Jinzhou,41.129,121.148,China,CN,CHN,Liaoning,,2703853.0,1156157151
Kanpur,Kanpur,26.4499,80.3319,India,IN,IND,Uttar Pradesh,,2701324.0,1356575238
Denver,Denver,39.762,-104.8758,United States,US,USA,Colorado,admin,2687458.0,1840018789
Nanping,Nanping,26.6418,118.1774,China,CN,CHN,Fujian,minor,2680645.0,1156927445
Gāzipura,Gazipura,23.9889,90.375,Bangladesh,BD,BGD,Dhaka,,2674697.0,1050449249
Shanwei,Shanwei,22.7872,115.3756,China,CN,CHN,Guangdong,minor,2672819.0,1156939010
Chaozhou,Chaozhou,23.658,116.622,China,CN,CHN,Guangdong,minor,2656600.0,1156549118
Guayaquil,Guayaquil,-2.19,-79.8875,Ecuador,EC,ECU,Guayas,admin,2650288.0,1218802178
Weifang,Weifang,36.708,119.162,China,CN,CHN,Shandong,,2636154.0,1156912965
Zibo,Zibo,36.8138,118.055,China,CN,CHN,Shandong,,2631647.0,1156381094
Ankang,Ankang,32.6854,109.029,China,CN,CHN,Shaanxi,,2629906.0,1156255711
Mogadishu,Mogadishu,2.0392,45.3419,Somalia,SO,SOM,Banaadir,primary,2610483.0,1706893395
Munich,Munich,48.1375,11.575,Germany,DE,DEU,Bavaria,admin,2606021.0,1276692352
Gulou,Gulou,26.0865,119.298,China,CN,CHN,Fujian,minor,2606000.0,1156680279
Taipei,Taipei,25.0375,121.5625,Taiwan,TW,TWN,Taipei,primary,2603150.0,1158881289
Bekasi,Bekasi,-6.2349,106.9923,Indonesia,ID,IDN,Jawa Barat,,2590257.0,1360006015
Damascus,Damascus,33.5131,36.2919,Syria,SY,SYR,Dimashq,primary,2584771.0,1760685964
Sanming,Sanming,26.2634,117.6389,China,CN,CHN,Fujian,minor,2580000.0,1156294429
Yangjiang,Yangjiang,21.857,111.983,China,CN,CHN,Guangdong,minor,2555600.0,1156123172
Jiamusi,Jiamusi,46.8,130.319,China,CN,CHN,Heilongjiang,minor,2552097.0,1156350864
Luohe,Luohe,33.583,114.0109,China,CN,CHN,Henan,minor,2544266.0,1156330876
Medellín,Medellin,6.2308,-75.5906,Colombia,CO,COL,Antioquia,admin,2529403.0,1170680389
Dingxi,Dingxi,35.608,104.592,China,CN,CHN,Gansu,minor,2524097.0,1156518274
Shaoxing,Shaoxing,30.0511,120.5833,China,CN,CHN,Zhejiang,minor,2521964.0,1156893449
Yantai,Yantai,37.4646,121.4478,China,CN,CHN,Shandong,,2511053.0,1156932948
Huizhou,Huizhou,23.112,114.416,China,CN,CHN,Guangdong,minor,2509243.0,1156203268
Lishui,Lishui,28.468,119.923,China,CN,CHN,Zhejiang,minor,2507396.0,1156858793
Xuanzhou,Xuanzhou,30.939,118.759,China,CN,CHN,Anhui,,2500063.0,1156424311
Khowrhesht,Khowrhesht,36.205,49.6872,Iran,IR,IRN,Qazvīn,,2500000.0,1364002070
Mirzāpur,Mirzapur,25.146,82.569,India,IN,IND,Uttar Pradesh,,2496970.0,1356427908
Zigong,Zigong,29.339,104.779,China,CN,CHN,Sichuan,,2489256.0,1156023354
Hamburg,Hamburg,53.55,10.0,Germany,DE,DEU,Hamburg,admin,2484800.0,1276041799
Guangyuan,Guangyuan,32.436,105.844,China,CN,CHN,Sichuan,,2484122.0,1156084562
Cali,Cali,3.4206,-76.5222,Colombia,CO,COL,Valle del Cauca,admin,2471474.0,1170417589
Huangshi,Huangshi,30.2011,115.039,China,CN,CHN,Hubei,minor,2469079.0,1156234290
Xining,Xining,36.6224,101.7804,China,CN,CHN,Qinghai,admin,2467965.0,1156081448
Lusaka,Lusaka,-15.4167,28.2833,Zambia,ZM,ZMB,Lusaka,primary,2467563.0,1894157390
Ouagadougou,Ouagadougou,12.3686,-1.5275,Burkina Faso,BF,BFA,Centre,primary,2453496.0,1854029208
Yaoundé,Yaounde,3.8667,11.5167,Cameroon,CM,CMR,Centre,primary,2440462.0,1120298240
Zhuhai,Zhuhai,22.2716,113.5769,China,CN,CHN,Guangdong,minor,2439585.0,1156722242
Huludao,Huludao,40.711,120.837,China,CN,CHN,Liaoning,minor,2434194.0,1156580218
Baoshan,Baoshan,25.112,99.161,China,CN,CHN,Yunnan,,2431211.0,1156546994
Mecca,Mecca,21.4225,39.8233,Saudi Arabia,SA,SAU,Makkah al Mukarramah,admin,2427924.0,1682169241
Vancouver,Vancouver,49.25,-123.1,Canada,CA,CAN,British Columbia,,2426160.0,1124825478
Lianshan,Lianshan,40.7523,120.828,China,CN,CHN,Liaoning,minor,2426000.0,1156046704
Beirut,Beirut,33.8983,35.5057,Lebanon,LB,LBN,Beyrouth,primary,2421354.0,1422847713
Salvador,Salvador,-12.9747,-38.4767,Brazil,BR,BRA,Bahia,admin,2418005.0,1076923789
Bucharest,Bucharest,44.4325,26.1039,Romania,RO,ROU,Bucureşti,primary,2412530.0,1642414442
Longba,Longba,33.3702,104.9603,China,CN,CHN,Gansu,,2407272.0,1156633259
Nāgpur,Nagpur,21.1497,79.0806,India,IN,IND,Mahārāshtra,,2405665.0,1356365743
Queens,Queens,40.7498,-73.7976,United States,US,USA,New York,,2405464.0,1840034002
Jilin,Jilin,43.8519,126.5481,China,CN,CHN,Jilin,,2396000.0,1156646448
Tieling,Tieling,42.2237,123.726,China,CN,CHN,Liaoning,,2388294.0,1156089994
Accra,Accra,5.55,-0.2,Ghana,GH,GHA,Greater Accra,primary,2388000.0,1288299415
Yunfu,Yunfu,22.9152,112.0445,China,CN,CHN,Guangdong,minor,2383350.0,1156057251
Daegu,Daegu,35.8717,128.6017,"Korea, South",KR,KOR,Daegu,admin,2376044.0,1410095252
Ghāziābād,Ghaziabad,28.67,77.42,India,IN,IND,Uttar Pradesh,,2375820.0,1356691871
Luoyang,Luoyang,34.6197,112.4539,China,CN,CHN,Henan,,2372571.0,1156069315
Brisbane,Brisbane,-27.4678,153.0281,Australia,AU,AUS,Queensland,admin,2360241.0,1036192929
Anshun,Anshun,26.2531,105.9476,China,CN,CHN,Guizhou,,2353100.0,1156415948
Riverside,Riverside,33.9381,-117.3949,United States,US,USA,California,,2332836.0,1840020551
Yingkou,Yingkou,40.625,122.219,China,CN,CHN,Liaoning,minor,2328582.0,1156257074
Colombo,Colombo,6.9344,79.8428,Sri Lanka,LK,LKA,Western,primary,2323826.0,1144251314
Yanjiang,Yanjiang,30.129,104.627,China,CN,CHN,Sichuan,minor,2308631.0,1156217114
Baku,Baku,40.3953,49.8822,Azerbaijan,AZ,AZE,Bakı,primary,2300500.0,1031946365
Antananarivo,Antananarivo,-18.91,47.525,Madagascar,MG,MDG,Antananarivo,primary,2300000.0,1450978461
Mudanjiang,Mudanjiang,44.5514,129.6329,China,CN,CHN,Heilongjiang,minor,2290208.0,1156249698
Fukuoka,Fukuoka,33.59,130.4017,Japan,JP,JPN,Fukuoka,admin,2286000.0,1392576294
Jincheng,Jincheng,35.491,112.852,China,CN,CHN,Shanxi,minor,2279146.0,1156163376
Nantong,Nantong,31.981,120.894,China,CN,CHN,Jiangsu,minor,2261382.0,1156045365
Lincang,Lincang,23.884,100.089,China,CN,CHN,Yunnan,,2257991.0,1156044130
Yuxi,Yuxi,24.347,102.527,China,CN,CHN,Yunnan,minor,2249502.0,1156682309
Caracas,Caracas,10.4806,-66.9036,Venezuela,VE,VEN,Distrito Capital,primary,2245744.0,1862748204
Tangerang,Tangerang,-6.1703,106.6403,Indonesia,ID,IDN,Jawa Barat,,2237006.0,1360002844
Laibin,Laibin,23.7501,109.2212,China,CN,CHN,Guangxi,minor,2233900.0,1156925734
Konya,Konya,37.8667,32.4833,Turkey,TR,TUR,Konya,admin,2232374.0,1792014004
Supaul,Supaul,26.126,86.605,India,IN,IND,Bihār,,2229076.0,1356015995
Vienna,Vienna,48.2083,16.3725,Austria,AT,AUT,Wien,primary,2223236.0,1040261752
Eşfahān,Esfahan,32.6447,51.6675,Iran,IR,IRN,Eşfahān,admin,2219343.0,1364023865
Baltimore,Baltimore,39.3051,-76.6144,United States,US,USA,Maryland,,2196524.0,1840001592
Shengli,Shengli,37.434,118.6746,China,CN,CHN,Shandong,minor,2193518.0,1156672254
Dandong,Dandong,40.1167,124.3833,China,CN,CHN,Liaoning,,2188436.0,1156178316
Qinbaling,Qinbaling,35.7278,107.64,China,CN,CHN,Gansu,,2179716.0,1156032582
Gaoping,Gaoping,30.7824,106.1281,China,CN,CHN,Sichuan,minor,2174000.0,1156522457
Awka,Awka,6.2069,7.0678,Nigeria,NG,NGA,Anambra,admin,2171900.0,1566560581
Taizhou,Taizhou,28.6557,121.4208,China,CN,CHN,Zhejiang,minor,2162461.0,1156322307
Harare,Harare,-17.8292,31.0522,Zimbabwe,ZW,ZWE,Harare,primary,2150000.0,1716196799
Perth,Perth,-31.9559,115.8606,Australia,AU,AUS,Western Australia,admin,2141834.0,1036178956
Depok,Depok,-6.394,106.8225,Indonesia,ID,IDN,Jawa Barat,,2123349.0,1360962899
Stockholm,Stockholm,59.3294,18.0686,Sweden,SE,SWE,Stockholm,primary,2121000.0,1752425602
Puning,Puning,23.298,116.166,China,CN,CHN,Guangdong,,2118200.0,1156756494
Huaibei,Huaibei,33.956,116.798,China,CN,CHN,Anhui,,2114276.0,1156142626
Kowloon,Kowloon,22.3167,114.1833,Hong Kong,HK,HKG,,,2108419.0,1344538284
Córdoba,Cordoba,-31.4167,-64.1833,Argentina,AR,ARG,Córdoba,admin,2106734.0,1032803249
Haiphong,Haiphong,20.8651,106.6838,Vietnam,VN,VNM,Hải Phòng,admin,2103500.0,1704000623
Chongzuo,Chongzuo,22.377,107.365,China,CN,CHN,Guangxi,minor,2099400.0,1156438670
Rawalpindi,Rawalpindi,33.6,73.0333,Pakistan,PK,PAK,Punjab,minor,2098231.0,1586344001
Portland,Portland,45.5371,-122.65,United States,US,USA,Oregon,,2095808.0,1840019941
Kano,Kano,12.0,8.5167,Nigeria,NG,NGA,Kano,admin,2095000.0,1566422868
Yushan,Yushan,31.322,120.985,China,CN,CHN,Jiangsu,minor,2092496.0,1156245000
Havana,Havana,23.1367,-82.3589,Cuba,CU,CUB,La Habana,primary,2089532.0,1192752771
Hezhou,Hezhou,24.4042,111.5672,China,CN,CHN,Guangxi,minor,2072600.0,1156459799
Pingliang,Pingliang,35.5424,106.6649,China,CN,CHN,Gansu,minor,2068033.0,1156216904
Vadodara,Vadodara,22.3,73.2,India,IN,IND,Gujarāt,,2065771.0,1356705249
Manaus,Manaus,-3.1189,-60.0217,Brazil,BR,BRA,Amazonas,admin,2063547.0,1076607274
Qingyang,Qingyang,24.7816,118.5517,China,CN,CHN,Fujian,minor,2061600.0,1156273372
Rājkot,Rajkot,22.3,70.7833,India,IN,IND,Gujarāt,,2043000.0,1356317190
Shangzhou,Shangzhou,33.868,109.9244,China,CN,CHN,Shaanxi,,2041231.0,1156091241
Vishākhapatnam,Vishakhapatnam,17.7042,83.2978,India,IN,IND,Andhra Pradesh,,2035922.0,1356692563
Sanmenxia,Sanmenxia,34.7732,111.2004,China,CN,CHN,Henan,,2034872.0,1156529682
Baicheng,Baicheng,45.62,122.838,China,CN,CHN,Jilin,minor,2032356.0,1156435764
Gujranwala,Gujranwala,32.1567,74.19,Pakistan,PK,PAK,Punjab,minor,2027001.0,1586400472
Aleppo,Aleppo,36.2,37.16,Syria,SY,SYR,Ḩalab,admin,2003671.0,1760366651
Tijuana,Tijuana,32.525,-117.0333,Mexico,MX,MEX,Baja California,minor,2002000.0,1484708778
Bamenda,Bamenda,5.9614,10.1517,Cameroon,CM,CMR,North-West,admin,2000000.0,1120909610
Minsk,Minsk,53.9,27.5667,Belarus,BY,BLR,Minsk,primary,1995471.0,1112348503
Indore,Indore,22.7167,75.8472,India,IN,IND,Madhya Pradesh,,1994397.0,1356402812
Karaj,Karaj,35.8272,50.9489,Iran,IR,IRN,Alborz,admin,1973470.0,1364258511
Kananga,Kananga,-5.897,22.4488,Congo (Kinshasa),CD,COD,Kasaï Central,admin,1971704.0,1180172460
Peshawar,Peshawar,34.0144,71.5675,Pakistan,PK,PAK,Khyber Pakhtunkhwa,admin,1970042.0,1586851102
Sapporo,Sapporo,43.0619,141.3544,Japan,JP,JPN,Hokkaidō,admin,1959313.0,1392000195
Sacramento,Sacramento,38.5677,-121.4685,United States,US,USA,California,admin,1957738.0,1840021491
Tilburg,Tilburg,51.55,5.0833,Netherlands,NL,NLD,Noord-Brabant,minor,1944588.0,1528817379
Pingxiang,Pingxiang,27.659,113.887,China,CN,CHN,Jiangxi,minor,1933200.0,1156066465
Ecatepec,Ecatepec,19.6097,-99.06,Mexico,MX,MEX,México,minor,1929926.0,1484003694
Almaty,Almaty,43.24,76.915,Kazakhstan,KZ,KAZ,Almaty,admin,1916822.0,1398351701
Austin,Austin,30.3005,-97.7522,United States,US,USA,Texas,admin,1905945.0,1840019590
Yinchuan,Yinchuan,38.485,106.225,China,CN,CHN,Ningxia,admin,1901793.0,1156359072
Santos,Santos,-23.9369,-46.325,Brazil,BR,BRA,São Paulo,,1897551.0,1076033299
Blantyre,Blantyre,-15.7861,35.0058,Malawi,MW,MWI,Blantyre,admin,1895973.0,1454145012
Thāne,Thane,19.1972,72.9722,India,IN,IND,Mahārāshtra,,1886941.0,1356681152
Orlando,Orlando,28.4773,-81.337,United States,US,USA,Florida,,1882705.0,1840015099
Tainan,Tainan,22.9833,120.1833,Taiwan,TW,TWN,Tainan,admin,1874686.0,1158061376
Xiping,Xiping,40.082,113.2981,China,CN,CHN,Shanxi,minor,1873000.0,1156898522
Multan,Multan,30.1978,71.4697,Pakistan,PK,PAK,Punjab,minor,1871843.0,1586256291
Jixi,Jixi,45.295,130.969,China,CN,CHN,Heilongjiang,minor,1862165.0,1156393765
Fushun,Fushun,41.881,123.957,China,CN,CHN,Liaoning,,1861372.0,1156857743
Warsaw,Warsaw,52.23,21.0111,Poland,PL,POL,Mazowieckie,primary,1860281.0,1616024847
Beihai,Beihai,21.481,109.12,China,CN,CHN,Guangxi,minor,1853227.0,1156421449
Fuxin,Fuxin,42.022,121.67,China,CN,CHN,Liaoning,,1819339.0,1156141954
Wuwei,Wuwei,37.929,102.638,China,CN,CHN,Gansu,minor,1815059.0,1156760291
Siping,Siping,43.1668,124.3506,China,CN,CHN,Jilin,minor,1814733.0,1156063295
Mersin,Mersin,36.8,34.6333,Turkey,TR,TUR,Mersin,admin,1814468.0,1792520282
Bhopāl,Bhopal,23.2599,77.4126,India,IN,IND,Madhya Pradesh,admin,1798218.0,1356734039
Mosul,Mosul,36.34,43.13,Iraq,IQ,IRQ,Nīnawá,admin,1792000.0,1368194914
Lubumbashi,Lubumbashi,-11.6647,27.4794,Congo (Kinshasa),CD,COD,Haut-Katanga,admin,1786397.0,1180506234
Davao,Davao,7.07,125.6,Philippines,PH,PHL,Davao,admin,1776949.0,1608906877
Curitiba,Curitiba,-25.4297,-49.2711,Brazil,BR,BRA,Paraná,admin,1773733.0,1076701712
Shuyangzha,Shuyangzha,34.1299,118.7734,China,CN,CHN,Jiangsu,,1770000.0,1156051957
Adana,Adana,37.0,35.3213,Turkey,TR,TUR,Adana,admin,1765981.0,1792783772
Quito,Quito,-0.22,-78.5125,Ecuador,EC,ECU,Pichincha,primary,1763275.0,1218441993
Pittsburgh,Pittsburgh,40.4397,-79.9763,United States,US,USA,Pennsylvania,,1749091.0,1840001254
Brazzaville,Brazzaville,-4.2694,15.2711,Congo (Brazzaville),CG,COG,Brazzaville,primary,1733263.0,1178340306
Diyarbakır,Diyarbakir,37.91,40.24,Turkey,TR,TUR,Diyarbakır,admin,1732396.0,1792536241
Indianapolis,Indianapolis,39.7771,-86.1458,United States,US,USA,Indiana,admin,1729849.0,1840030084
Masqaţ,Masqat,23.5889,58.4083,Oman,OM,OMN,Masqaţ,,1720000.0,1512001294
Montevideo,Montevideo,-34.8836,-56.1819,Uruguay,UY,URY,Montevideo,primary,1719453.0,1858107000
Shuozhou,Shuozhou,39.3317,112.4329,China,CN,CHN,Shanxi,minor,1714857.0,1156227167
Manhattan,Manhattan,40.7834,-73.9662,United States,US,USA,New York,,1694263.0,1840034000
Cincinnati,Cincinnati,39.1413,-84.506,United States,US,USA,Ohio,,1692702.0,1840003814
Patna,Patna,25.594,85.1376,India,IN,IND,Bihār,admin,1684222.0,1356821429
Tegucigalpa,Tegucigalpa,14.1058,-87.2047,Honduras,HN,HND,Francisco Morazán,primary,1682725.0,1340344059
Kampala,Kampala,0.3136,32.5811,Uganda,UG,UGA,Kampala,primary,1680600.0,1800406299
Cleveland,Cleveland,41.4764,-81.6805,United States,US,USA,Ohio,,1680247.0,1840000596
Sanzhou,Sanzhou,30.82,108.4,China,CN,CHN,Chongqing,,1680000.0,1156025536
Changshu,Changshu,31.656,120.753,China,CN,CHN,Jiangsu,,1677050.0,1156901538
Heihe,Heihe,50.2401,127.521,China,CN,CHN,Heilongjiang,minor,1673899.0,1156339225
Conakry,Conakry,9.5092,-13.7122,Guinea,GN,GIN,Conakry,primary,1667864.0,1324568159
Ximeicun,Ximeicun,24.9612,118.3849,China,CN,CHN,Fujian,,1663542.0,1156173813
Masvingo,Masvingo,-20.0744,30.8328,Zimbabwe,ZW,ZWE,Masvingo,admin,1638528.0,1716049475
Zhongli,Zhongli,24.965,121.2168,Taiwan,TW,TWN,Taoyuan,,1632616.0,1158025380
Novosibirsk,Novosibirsk,55.05,82.95,Russia,RU,RUS,Novosibirskaya Oblast’,admin,1625631.0,1643399240
Bilāspur,Bilaspur,22.09,82.15,India,IN,IND,Chhattīsgarh,,1625502.0,1356820491
Semarang,Semarang,-6.99,110.4225,Indonesia,ID,IDN,Jawa Tengah,admin,1621384.0,1360745537
Jingdezhen,Jingdezhen,29.2917,117.1986,China,CN,CHN,Jiangxi,minor,1618979.0,1156038165
Ludhiāna,Ludhiana,30.91,75.85,India,IN,IND,Punjab,,1618879.0,1356929498
Liaoyang,Liaoyang,41.279,123.176,China,CN,CHN,Liaoning,,1604580.0,1156202749
Chengtangcun,Chengtangcun,35.0833,117.15,China,CN,CHN,Shandong,,1603659.0,1156883901
Rājshāhi,Rajshahi,24.3667,88.6,Bangladesh,BD,BGD,Rājshāhi,admin,1600000.0,1050547831
Balandougou,Balandougou,13.3558,-9.5517,Mali,ML,MLI,Kayes,,1596882.0,1466367944
Jiangyin,Jiangyin,31.839,120.295,China,CN,CHN,Jiangsu,,1595138.0,1156033234
Valencia,Valencia,39.47,-0.3764,Spain,ES,ESP,Valencia,admin,1595000.0,1724981666
Āgra,Agra,27.18,78.02,India,IN,IND,Uttar Pradesh,,1585704.0,1356187395
Puebla,Puebla,19.0333,-98.1833,Mexico,MX,MEX,Puebla,admin,1576259.0,1484416394
Columbus,Columbus,39.9862,-82.9855,United States,US,USA,Ohio,admin,1572546.0,1840003760
Yopougon,Yopougon,5.3167,-4.0667,Côte d’Ivoire,CI,CIV,Abidjan,,1571065.0,1384759584
Hebi,Hebi,35.748,114.297,China,CN,CHN,Henan,,1569208.0,1156114258
Shīrāz,Shiraz,29.61,52.5425,Iran,IR,IRN,Fārs,admin,1565572.0,1364432238
Madurai,Madurai,9.9252,78.1198,India,IN,IND,Tamil Nādu,minor,1561129.0,1356257289
Huzhou,Huzhou,30.8925,120.0875,China,CN,CHN,Zhejiang,minor,1558826.0,1156335543
Tabrīz,Tabriz,38.0814,46.3006,Iran,IR,IRN,Āz̄arbāyjān-e Sharqī,admin,1558693.0,1364141756
Jamshedpur,Jamshedpur,22.7925,86.1842,India,IN,IND,Jhārkhand,,1558000.0,1356501259
Maracaibo,Maracaibo,10.6333,-71.6333,Venezuela,VE,VEN,Zulia,admin,1551539.0,1862072711
Sofia,Sofia,42.7,23.33,Bulgaria,BG,BGR,Sofia-Grad,primary,1547779.0,1100762037
Prayagraj,Prayagraj,25.4358,81.8464,India,IN,IND,Uttar Pradesh,,1536218.0,1356718332
Palembang,Palembang,-2.9861,104.7556,Indonesia,ID,IDN,Sumatera Selatan,admin,1535952.0,1360902897
Kawasaki,Kawasaki,35.5167,139.7,Japan,JP,JPN,Kanagawa,,1531646.0,1392003356
Kōbe,Kobe,34.69,135.1956,Japan,JP,JPN,Hyōgo,admin,1521707.0,1392978082
Jiaxing,Jiaxing,30.747,120.756,China,CN,CHN,Zhejiang,minor,1518654.0,1156491661
Kigali,Kigali,-1.9439,30.0594,Rwanda,RW,RWA,Kigali,primary,1518632.0,1646923541
Zhangjiajie,Zhangjiajie,29.117,110.479,China,CN,CHN,Hunan,minor,1517027.0,1156072884
Baiyin,Baiyin,36.5451,104.1389,China,CN,CHN,Gansu,minor,1512110.0,1156140738
Guiping,Guiping,23.4,110.0833,China,CN,CHN,Guangxi,minor,1511011.0,1156165517
Lianjiang,Lianjiang,21.7333,110.2833,China,CN,CHN,Guangdong,,1509400.0,1156944106
Jianguang,Jianguang,28.1958,115.7833,China,CN,CHN,Jiangxi,,1507402.0,1156545200
Yucheng,Yucheng,30.01,103.0415,China,CN,CHN,Sichuan,minor,1507258.0,1156817119
Xushan,Xushan,30.1667,121.2333,China,CN,CHN,Zhejiang,minor,1502000.0,1156046916
Leizhou,Leizhou,20.9143,110.0967,China,CN,CHN,Guangdong,minor,1494700.0,1156863840
Gwangju,Gwangju,35.1653,126.8486,"Korea, South",KR,KOR,Gwangju,admin,1490092.0,1410000087
Recife,Recife,-8.05,-34.9,Brazil,BR,BRA,Pernambuco,admin,1488920.0,1076137337
Nāsik,Nasik,19.9975,73.7898,India,IN,IND,Mahārāshtra,,1486053.0,1356562598
Valencia,Valencia,10.1833,-68.0,Venezuela,VE,VEN,Carabobo,admin,1484430.0,1862309871
Onitsha,Onitsha,6.1667,6.7833,Nigeria,NG,NGA,Anambra,minor,1483000.0,1566593483
Zapopan,Zapopan,20.7167,-103.4,Mexico,MX,MEX,Jalisco,minor,1476491.0,1484198680
Daejeon,Daejeon,36.35,127.385,"Korea, South",KR,KOR,Daejeon,admin,1475221.0,1410993875
Bronx,Bronx,40.8501,-73.8662,United States,US,USA,New York,,1472654.0,1840033999
Yekaterinburg,Yekaterinburg,56.8356,60.6128,Russia,RU,RUS,Sverdlovskaya Oblast’,admin,1468833.0,1643582706
Huazhou,Huazhou,32.688,112.087,China,CN,CHN,Henan,minor,1468061.0,1156796734
Jinhua,Jinhua,29.079,119.647,China,CN,CHN,Zhejiang,minor,1463990.0,1156547188
Kyōto,Kyoto,35.0117,135.7683,Japan,JP,JPN,Kyōto,admin,1463723.0,1392622735
Amsterdam,Amsterdam,52.3728,4.8936,Netherlands,NL,NLD,Noord-Holland,primary,1459402.0,1528355309
Pizhou,Pizhou,34.398,117.89,China,CN,CHN,Jiangsu,,1458038.0,1156114238
Kismaayo,Kismaayo,-0.3581,42.5453,Somalia,SO,SOM,Jubbada Hoose,admin,1458000.0,1706091701
Yangshe,Yangshe,31.8767,120.556,China,CN,CHN,Jiangsu,minor,1447600.0,1156203000
Dakar,Dakar,14.6928,-17.4467,Senegal,SN,SEN,Dakar,primary,1438725.0,1686604760
Goiânia,Goiania,-16.6667,-49.25,Brazil,BR,BRA,Goiás,admin,1437237.0,1076034054
Charlotte,Charlotte,35.2083,-80.8303,United States,US,USA,North Carolina,,1427444.0,1840014557
Muscat,Muscat,23.6139,58.5922,Oman,OM,OMN,Masqaţ,primary,1421409.0,1512035506
Kharkiv,Kharkiv,49.9925,36.2311,Ukraine,UA,UKR,Kharkivska Oblast,admin,1421125.0,1804588111
Wenling,Wenling,28.3667,121.3667,China,CN,CHN,Zhejiang,,1416199.0,1156052493
Gaozhou,Gaozhou,21.9244,110.8422,China,CN,CHN,Guangdong,minor,1414100.0,1156785303
Farīdābād,Faridabad,28.4211,77.3078,India,IN,IND,Haryāna,,1414050.0,1356013205
Medina,Medina,24.47,39.61,Saudi Arabia,SA,SAU,Al Madīnah al Munawwarah,admin,1411599.0,1682345785
Khulna,Khulna,22.8167,89.55,Bangladesh,BD,BGD,Khulna,admin,1400689.0,1050667339
Ulaanbaatar,Ulaanbaatar,47.9203,106.9172,Mongolia,MN,MNG,Ulaanbaatar,primary,1396288.0,1496024767
Fuqing,Fuqing,25.7167,119.3833,China,CN,CHN,Fujian,minor,1390487.0,1156893569
Kayseri,Kayseri,38.7225,35.4875,Turkey,TR,TUR,Kayseri,admin,1389680.0,1792945815
Wuzhong,Wuzhong,37.9978,106.1986,China,CN,CHN,Ningxia,minor,1382713.0,1156139322
Pingdu,Pingdu,36.7769,119.9884,China,CN,CHN,Shandong,,1378900.0,1156157078
Sangereng,Sangereng,-6.2889,106.7181,Indonesia,ID,IDN,Jawa Barat,,1378466.0,1360029147
Yangquan,Yangquan,37.8571,113.5804,China,CN,CHN,Shanxi,minor,1368502.0,1156157844
Samsun,Samsun,41.2903,36.3336,Turkey,TR,TUR,Samsun,admin,1368488.0,1792169057
Yutan,Yutan,28.278,112.552,China,CN,CHN,Hunan,minor,1368117.0,1156592042
Copenhagen,Copenhagen,55.6761,12.5683,Denmark,DK,DNK,Hovedstaden,primary,1366301.0,1208763942
Helsinki,Helsinki,60.1708,24.9375,Finland,FI,FIN,Uusimaa,primary,1360075.0,1246177997
Prague,Prague,50.0875,14.4214,Czechia,CZ,CZE,Praha,primary,1357326.0,1203744823
Milan,Milan,45.4669,9.19,Italy,IT,ITA,Lombardy,admin,1354196.0,1380724377
Auckland,Auckland,-36.8406,174.74,New Zealand,NZ,NZL,Auckland,admin,1346091.0,1554435911
Santiago,Santiago,19.4572,-70.6889,Dominican Republic,DO,DOM,Cibao Norte,admin,1343423.0,1214985348
Chizhou,Chizhou,30.6654,117.4916,China,CN,CHN,Anhui,minor,1342764.0,1156131504
Makassar,Makassar,-5.1619,119.4362,Indonesia,ID,IDN,Sulawesi Selatan,admin,1338663.0,1360051337
Liangshi,Liangshi,27.26,111.7442,China,CN,CHN,Hunan,,1335900.0,1156366507
Huangshan,Huangshan,29.7149,118.3376,China,CN,CHN,Anhui,minor,1330565.0,1156527426
Barranquilla,Barranquilla,10.9833,-74.8019,Colombia,CO,COL,Atlántico,admin,1326588.0,1170179113
Benxi,Benxi,41.4868,123.685,China,CN,CHN,Liaoning,,1326018.0,1156097909
Saitama,Saitama,35.8614,139.6456,Japan,JP,JPN,Saitama,admin,1325843.0,1392017719
Guarulhos,Guarulhos,-23.4628,-46.5328,Brazil,BR,BRA,São Paulo,,1324781.0,1076730420
Juárez,Juarez,31.745,-106.485,Mexico,MX,MEX,Chihuahua,minor,1321004.0,1484840083
Mandalay,Mandalay,21.9831,96.0844,Burma,MM,MMR,Mandalay,admin,1319452.0,1104468217
Xintai,Xintai,35.909,117.768,China,CN,CHN,Shandong,,1315942.0,1156761230
Wusong,Wusong,30.9333,117.7667,China,CN,CHN,Anhui,minor,1311726.0,1156264408
Calgary,Calgary,51.05,-114.0667,Canada,CA,CAN,Alberta,,1306784.0,1124690423
Meerut,Meerut,28.98,77.71,India,IN,IND,Uttar Pradesh,,1305429.0,1356390476
Yushu,Yushu,44.826,126.55,China,CN,CHN,Jilin,minor,1304436.0,1156326773
Belém,Belem,-1.4558,-48.5039,Brazil,BR,BRA,Pará,admin,1303389.0,1076646823
Kuaidamao,Kuaidamao,41.7283,125.9397,China,CN,CHN,Jilin,minor,1302778.0,1156106507
Huazhou,Huazhou,21.664,110.6396,China,CN,CHN,Guangdong,,1302100.0,1156282637
Baishan,Baishan,41.944,126.4147,China,CN,CHN,Jilin,minor,1296127.0,1156960624
Adelaide,Adelaide,-34.9275,138.6,Australia,AU,AUS,South Australia,admin,1295714.0,1036538171
Haicheng,Haicheng,40.8824,122.6852,China,CN,CHN,Liaoning,minor,1293877.0,1156052713
Milwaukee,Milwaukee,43.0642,-87.9675,United States,US,USA,Wisconsin,,1290940.0,1840003046
Providence,Providence,41.823,-71.4187,United States,US,USA,Rhode Island,admin,1290271.0,1840003289
Jacksonville,Jacksonville,30.3322,-81.6749,United States,US,USA,Florida,,1288298.0,1840015031
Yicheng,Yicheng,31.36,119.815,China,CN,CHN,Jiangsu,minor,1285785.0,1156292419
Cacuaco,Cacuaco,-8.8053,13.2444,Angola,AO,AGO,Luanda,,1279488.0,1024559448
Porto,Porto,41.1621,-8.622,Portugal,PT,PRT,Porto,admin,1278210.0,1620356810
Rosario,Rosario,-32.9575,-60.6394,Argentina,AR,ARG,Santa Fe,minor,1276000.0,1032770677
Canagatan,Canagatan,18.0,121.8,Philippines,PH,PHL,Cagayan,,1273219.0,1608697675
Soweto,Soweto,-26.2678,27.8585,South Africa,ZA,ZAF,Gauteng,,1271628.0,1710627007
Bagam,Bagam,1.13,104.0531,Indonesia,ID,IDN,Kepulauan Riau,,1269820.0,1360405604
Jabalpur,Jabalpur,23.1667,79.9333,India,IN,IND,Madhya Pradesh,,1267564.0,1356115460
Rucheng,Rucheng,32.246,120.591,China,CN,CHN,Jiangsu,minor,1267066.0,1156323529
Huaiyin,Huaiyin,33.5819,119.028,China,CN,CHN,Jiangsu,,1264000.0,1156662372
Dublin,Dublin,53.35,-6.2603,Ireland,IE,IRL,Dublin,primary,1263219.0,1372595407
Kazan,Kazan,55.7964,49.1089,Russia,RU,RUS,Tatarstan,admin,1259173.0,1643101260
Dayan,Dayan,26.8552,100.2259,China,CN,CHN,Yunnan,,1253878.0,1156828380
Shaoyang,Shaoyang,32.912,119.8526,China,CN,CHN,Jiangsu,minor,1253548.0,1156668366
Balıkesir,Balikesir,39.6333,27.8833,Turkey,TR,TUR,Balıkesir,admin,1250610.0,1792020804
Comayagüela,Comayaguela,14.098,-87.21,Honduras,HN,HND,Francisco Morazán,,1250000.0,1340762485
Laiwu,Laiwu,36.1833,117.6667,China,CN,CHN,Shandong,,1248636.0,1156207332
Sharjah,Sharjah,25.3575,55.3908,United Arab Emirates,AE,ARE,Ash Shāriqah,admin,1247749.0,1784152993
Jingling,Jingling,30.664,113.167,China,CN,CHN,Hubei,,1247400.0,1156060544
Kalyān,Kalyan,19.2502,73.1602,India,IN,IND,Mahārāshtra,,1246381.0,1356172246
Yongcheng,Yongcheng,33.9299,116.45,China,CN,CHN,Henan,,1240382.0,1156841802
Sumedang,Sumedang,-6.84,107.9208,Indonesia,ID,IDN,Jawa Barat,,1240000.0,1360564479
Brussels,Brussels,50.8467,4.3525,Belgium,BE,BEL,Brussels-Capital Region,primary,1235192.0,1056469830
Suwon,Suwon,37.2667,127.0167,"Korea, South",KR,KOR,Gyeonggi,admin,1234300.0,1410679777
Yiwu,Yiwu,29.3069,120.0753,China,CN,CHN,Zhejiang,minor,1234015.0,1156078044
Beidao,Beidao,34.602,105.918,China,CN,CHN,Gansu,minor,1225000.0,1156137209
Xiangshui,Xiangshui,26.5964,104.8314,China,CN,CHN,Guizhou,,1221000.0,1156328867
Dadukou,Dadukou,26.5824,101.7184,China,CN,CHN,Sichuan,minor,1214121.0,1156901342
Campinas,Campinas,-22.9058,-47.0608,Brazil,BR,BRA,São Paulo,,1213792.0,1076145766
Lingcheng,Lingcheng,22.7,110.35,China,CN,CHN,Guangxi,,1211637.0,1156202191
Shuangyashan,Shuangyashan,46.6762,131.1416,China,CN,CHN,Heilongjiang,minor,1208803.0,1156245904
Mombasa,Mombasa,-4.05,39.6667,Kenya,KE,KEN,Mombasa,admin,1208333.0,1404512373
Najafgarh,Najafgarh,28.6092,76.9798,India,IN,IND,Delhi,,1203180.0,1356180206
Xinyu,Xinyu,27.8186,114.9167,China,CN,CHN,Jiangxi,minor,1202499.0,1156138735
Qom,Qom,34.64,50.8764,Iran,IR,IRN,Qom,admin,1201158.0,1364701633
Hargeysa,Hargeysa,9.5631,44.0675,Somalia,SO,SOM,Woqooyi Galbeed,admin,1200000.0,1706832021
Baidoa,Baidoa,3.1167,43.65,Somalia,SO,SOM,Bay,admin,1200000.0,1706563100
Zhangye,Zhangye,38.9248,100.4499,China,CN,CHN,Gansu,minor,1199515.0,1156180353
Vārānasi,Varanasi,25.3189,83.0128,India,IN,IND,Uttar Pradesh,,1198491.0,1356145782
Hiroshima,Hiroshima,34.3914,132.4519,Japan,JP,JPN,Hiroshima,admin,1198021.0,1392373695
Belgrade,Belgrade,44.82,20.46,Serbia,RS,SRB,Beograd,primary,1197714.0,1688374696
Maiduguri,Maiduguri,11.8333,13.15,Nigeria,NG,NGA,Borno,admin,1197497.0,1566540296
Chelyabinsk,Chelyabinsk,55.1547,61.3758,Russia,RU,RUS,Chelyabinskaya Oblast’,admin,1196680.0,1643224011
Rongcheng,Rongcheng,26.218,104.103,China,CN,CHN,Yunnan,,1189813.0,1156122888
Mbandaka,Mbandaka,0.0478,18.2558,Congo (Kinshasa),CD,COD,Équateur,admin,1187837.0,1180720887
Doha,Doha,25.2867,51.5333,Qatar,QA,QAT,Ad Dawḩah,primary,1186023.0,1634459660
Ahvāz,Ahvaz,31.3047,48.6783,Iran,IR,IRN,Khūzestān,admin,1184788.0,1364350188
Shymkent,Shymkent,42.3167,69.5958,Kazakhstan,KZ,KAZ,Shymkent,admin,1184113.0,1398791401
Tripoli,Tripoli,32.8872,13.1914,Libya,LY,LBY,Ţarābulus,primary,1183000.0,1434201852
Srīnagar,Srinagar,34.09,74.79,India,IN,IND,Jammu and Kashmīr,admin,1180570.0,1356442950
Nashville,Nashville,36.1715,-86.7842,United States,US,USA,Tennessee,admin,1177657.0,1840036155
Liaoyuan,Liaoyuan,42.888,125.1447,China,CN,CHN,Jilin,minor,1176239.0,1156249772
Aurangābād,Aurangabad,19.88,75.32,India,IN,IND,Mahārāshtra,,1175116.0,1356840670
Cilacap,Cilacap,-7.7167,109.017,Indonesia,ID,IDN,Jawa Tengah,minor,1174964.0,1360503809
Omsk,Omsk,54.9833,73.3667,Russia,RU,RUS,Omskaya Oblast’,admin,1172070.0,1643360863
Pikine,Pikine,14.75,-17.4,Senegal,SN,SEN,Dakar,,1170791.0,1686165071
Samara,Samara,53.2028,50.1408,Russia,RU,RUS,Samarskaya Oblast’,admin,1169719.0,1643205757
Guankou,Guankou,28.1637,113.6433,China,CN,CHN,Hunan,minor,1168056.0,1156249346
Raleigh,Raleigh,35.8324,-78.6429,United States,US,USA,North Carolina,admin,1163152.0,1840014497
Lianyuan,Lianyuan,27.692,111.664,China,CN,CHN,Hunan,minor,1162928.0,1156490109
Rongcheng,Rongcheng,29.8402,112.9048,China,CN,CHN,Hubei,minor,1162770.0,1156102432
Dhanbād,Dhanbad,23.7998,86.4305,India,IN,IND,Jhārkhand,,1162472.0,1356103392
Aba,Aba,5.1167,7.3667,Nigeria,NG,NGA,Abia,minor,1160000.0,1566262000
Kaiyuan,Kaiyuan,36.0193,113.86,China,CN,CHN,Henan,minor,1160000.0,1156441554
Zhuji,Zhuji,29.7167,120.2333,China,CN,CHN,Zhejiang,minor,1157938.0,1156504227
Yingtan,Yingtan,28.2721,117.0395,China,CN,CHN,Jiangxi,,1154223.0,1156301061
Edmonton,Edmonton,53.5344,-113.4903,Canada,CA,CAN,Alberta,admin,1151635.0,1124290735
Leiyang,Leiyang,26.4223,112.8598,China,CN,CHN,Hunan,minor,1151554.0,1156057789
Ulsan,Ulsan,35.55,129.3167,"Korea, South",KR,KOR,Ulsan,admin,1150116.0,1410134602
Yichun,Yichun,47.728,128.841,China,CN,CHN,Heilongjiang,minor,1148126.0,1156757274
Bujumbura,Bujumbura,-3.3833,29.3667,Burundi,BI,BDI,Bujumbura Mairie,primary,1143202.0,1108101689
Guyuan,Guyuan,36.01,106.257,China,CN,CHN,Ningxia,,1142142.0,1156817541
Xiantao,Xiantao,30.328,113.443,China,CN,CHN,Hubei,,1140100.0,1156216927
Rostov,Rostov,47.2225,39.71,Russia,RU,RUS,Rostovskaya Oblast’,admin,1137704.0,1643013518
Maputo,Maputo,-25.9667,32.5833,Mozambique,MZ,MOZ,Maputo,primary,1133200.0,1508074843
Bukavu,Bukavu,-2.5,28.8667,Congo (Kinshasa),CD,COD,Sud-Kivu,admin,1133000.0,1180475821
Amritsar,Amritsar,31.64,74.86,India,IN,IND,Punjab,,1132383.0,1356926507
Shagamu,Shagamu,6.8333,3.65,Nigeria,NG,NGA,Ogun,minor,1132270.0,1566202131
Yingchuan,Yingchuan,34.1511,113.4733,China,CN,CHN,Henan,minor,1131896.0,1156748426
Alīgarh,Aligarh,27.88,78.08,India,IN,IND,Uttar Pradesh,,1131160.0,1356076391
Bogor,Bogor,-6.5966,106.7972,Indonesia,ID,IDN,Jawa Barat,,1127408.0,1360771925
Bishkek,Bishkek,42.8747,74.6122,Kyrgyzstan,KG,KGZ,Bishkek,primary,1120827.0,1417191971
Tbilisi,Tbilisi,41.7225,44.7925,Georgia,GE,GEO,Tbilisi,primary,1118035.0,1268203191
Guwāhāti,Guwahati,26.1722,91.7458,India,IN,IND,Assam,,1116267.0,1356593800
Ufa,Ufa,54.7261,55.9475,Russia,RU,RUS,Bashkortostan,admin,1115560.0,1643722928
Fès,Fes,34.0433,-5.0033,Morocco,MA,MAR,Fès-Meknès,admin,1112072.0,1504861997
Mwanza,Mwanza,-2.5167,32.9,Tanzania,TZ,TZA,Mwanza,admin,1104521.0,1834011288
Mexicali,Mexicali,32.6633,-115.4678,Mexico,MX,MEX,Baja California,admin,1102342.0,1484788702
Sevilla,Sevilla,37.39,-5.99,Spain,ES,ESP,Andalusia,admin,1100000.0,1724991838
Ikare,Ikare,7.5167,5.75,Nigeria,NG,NGA,Ondo,minor,1099931.0,1566683694
Dongtai,Dongtai,32.795,120.519,China,CN,CHN,Jiangsu,minor,1098100.0,1156536785
Dingzhou,Dingzhou,38.516,114.99,China,CN,CHN,Hebei,minor,1095986.0,1156656582
Xibeijie,Xibeijie,39.7334,98.4943,China,CN,CHN,Gansu,minor,1095947.0,1156960560
Tamale,Tamale,9.4075,-0.8533,Ghana,GH,GHA,Northern,admin,1095808.0,1288890688
Yuyao,Yuyao,30.05,121.15,China,CN,CHN,Zhejiang,,1095000.0,1156221984
Hanchuan,Hanchuan,30.652,113.8274,China,CN,CHN,Hubei,,1092700.0,1156149248
Gongzhuling,Gongzhuling,43.5053,124.8224,China,CN,CHN,Jilin,minor,1092692.0,1156696810
Ubungo,Ubungo,-6.7889,39.2056,Tanzania,TZ,TZA,Dar es Salaam,,1086912.0,1834358621
Cologne,Cologne,50.9364,6.9528,Germany,DE,DEU,North Rhine-Westphalia,,1084831.0,1276015998
Krasnoyarsk,Krasnoyarsk,56.0089,92.8719,Russia,RU,RUS,Krasnoyarskiy Kray,admin,1083865.0,1643544975
Zhufeng,Zhufeng,36.0,119.4167,China,CN,CHN,Shandong,,1081960.0,1156522825
Ezhou,Ezhou,30.3914,114.8949,China,CN,CHN,Hubei,minor,1079353.0,1156414637
Astana,Astana,51.1472,71.4222,Kazakhstan,KZ,KAZ,Nur-Sultan,primary,1078362.0,1398516045
Nezahualcóyotl,Nezahualcoyotl,19.4081,-99.0186,Mexico,MX,MEX,México,minor,1077208.0,1484074285
Nouakchott,Nouakchott,18.0858,-15.9785,Mauritania,MR,MRT,Nouakchott Ouest,primary,1077169.0,1478414984
Hāora,Haora,22.58,88.3294,India,IN,IND,West Bengal,,1077075.0,1356986516
Tongjin,Tongjin,37.2333,127.2,"Korea, South",KR,KOR,Gyeonggi,,1076369.0,1410160862
Xiashi,Xiashi,30.5333,120.6833,China,CN,CHN,Zhejiang,minor,1076199.0,1156080077
Yerevan,Yerevan,40.1814,44.5144,Armenia,AM,ARM,Yerevan,primary,1075800.0,1051074169
Rānchi,Ranchi,23.36,85.33,India,IN,IND,Jhārkhand,admin,1073440.0,1356110588
Richmond,Richmond,37.5295,-77.4756,United States,US,USA,Virginia,admin,1073223.0,1840001698
Gwalior,Gwalior,26.2124,78.1772,India,IN,IND,Madhya Pradesh,,1069276.0,1356363967
Ottawa,Ottawa,45.4247,-75.695,Canada,CA,CAN,Ontario,primary,1068821.0,1124399363
Zhongwei,Zhongwei,37.5002,105.1968,China,CN,CHN,Ningxia,minor,1067336.0,1156956616
Oslo,Oslo,59.9133,10.7389,Norway,NO,NOR,Oslo,primary,1064235.0,1578324706
Goyang,Goyang,37.65,126.8,"Korea, South",KR,KOR,Gyeonggi,minor,1061929.0,1410511255
Sendai,Sendai,38.2682,140.8694,Japan,JP,JPN,Miyagi,admin,1061177.0,1392457903
Mizhou,Mizhou,35.99,119.3801,China,CN,CHN,Shandong,minor,1060000.0,1156935002
Xishan,Xishan,27.6461,113.497,China,CN,CHN,Hunan,minor,1060000.0,1156155575
Barquisimeto,Barquisimeto,10.0636,-69.3347,Venezuela,VE,VEN,Lara,admin,1059092.0,1862860739
Hegang,Hegang,47.3501,130.298,China,CN,CHN,Heilongjiang,minor,1058665.0,1156541759
Chandīgarh,Chandigarh,30.75,76.78,India,IN,IND,Chandīgarh,admin,1055450.0,1356739179
Voronezh,Voronezh,51.6717,39.2106,Russia,RU,RUS,Voronezhskaya Oblast’,admin,1051995.0,1643811064
Managua,Managua,12.1364,-86.2514,Nicaragua,NI,NIC,Managua,primary,1051236.0,1558296252
Haldwāni,Haldwani,29.22,79.52,India,IN,IND,Uttarākhand,,1050000.0,1356040854
Vijayavāda,Vijayawada,16.5193,80.6305,India,IN,IND,Andhra Pradesh,,1048240.0,1356807575
Perm,Perm,58.0,56.3167,Russia,RU,RUS,Permskiy Kray,admin,1048005.0,1643294442
Fangchenggang,Fangchenggang,21.6867,108.3547,China,CN,CHN,Guangxi,minor,1046068.0,1156532454
Jiancheng,Jiancheng,30.3931,104.5465,China,CN,CHN,Sichuan,minor,1045900.0,1156775521
Cazenga,Cazenga,-8.8214,13.2911,Angola,AO,AGO,Luanda,,1045722.0,1024791607
Kisangani,Kisangani,0.5167,25.2,Congo (Kinshasa),CD,COD,Tshopo,admin,1040000.0,1180478201
Shouguang,Shouguang,36.857,118.791,China,CN,CHN,Shandong,,1039205.0,1156787809
Memphis,Memphis,35.1087,-89.9663,United States,US,USA,Tennessee,,1037998.0,1840015457
Jodhpur,Jodhpur,26.28,73.02,India,IN,IND,Rājasthān,,1033918.0,1356727084
Matola,Matola,-25.9667,32.4667,Mozambique,MZ,MOZ,Maputo,,1032197.0,1508768577
Ogbomoso,Ogbomoso,8.1333,4.25,Nigeria,NG,NGA,Oyo,minor,1032000.0,1566373448
Sanya,Sanya,18.2533,109.5036,China,CN,CHN,Hainan,minor,1031396.0,1156373900
Rangapukur,Rangapukur,25.56,89.25,Bangladesh,BD,BGD,Rangpur,,1031388.0,1050032005
Ashgabat,Ashgabat,37.9375,58.38,Turkmenistan,TM,TKM,Aşgabat,primary,1030063.0,1795049992
Wutong,Wutong,30.6333,120.5333,China,CN,CHN,Zhejiang,minor,1029754.0,1156182309
Linhai,Linhai,28.85,121.1167,China,CN,CHN,Zhejiang,,1028813.0,1156451663
Denizli,Denizli,37.7833,29.0964,Turkey,TR,TUR,Denizli,admin,1027782.0,1792161179
Niamey,Niamey,13.515,2.1175,Niger,NE,NER,Niamey,primary,1026848.0,1562932886
Wafangdian,Wafangdian,39.6271,121.9796,China,CN,CHN,Liaoning,,1024876.0,1156476417
Zhongxiang,Zhongxiang,31.169,112.5853,China,CN,CHN,Hubei,,1022514.0,1156631720
Monrovia,Monrovia,6.3133,-10.8014,Liberia,LR,LBR,Montserrado,primary,1021762.0,1430477826
Islamabad,Islamabad,33.6931,73.0639,Pakistan,PK,PAK,Islamabad,primary,1014825.0,1586306717
Xinyi,Xinyi,22.3549,110.9468,China,CN,CHN,Guangdong,,1013900.0,1156936644
Morelia,Morelia,19.7683,-101.1894,Mexico,MX,MEX,Michoacán,admin,1011704.0,1484669072
Odesa,Odesa,46.4775,30.7326,Ukraine,UA,UKR,Odeska Oblast,admin,1010537.0,1804178102
Raipur,Raipur,21.2444,81.6306,India,IN,IND,Chhattīsgarh,admin,1010087.0,1356374983
Changwon,Changwon,35.2708,128.6631,"Korea, South",KR,KOR,Gyeongnam,admin,1009998.0,1410592618
Arequipa,Arequipa,-16.4,-71.5333,Peru,PE,PER,Arequipa,admin,1008290.0,1604723954
Volgograd,Volgograd,48.7086,44.5147,Russia,RU,RUS,Volgogradskaya Oblast’,admin,1004763.0,1643577201
Zaoyang,Zaoyang,32.129,112.772,China,CN,CHN,Hubei,,1004741.0,1156197076
Xingyi,Xingyi,25.092,104.8955,China,CN,CHN,Guizhou,,1004132.0,1156255316
Shuizhai,Shuizhai,33.4433,114.8994,China,CN,CHN,Henan,,1003698.0,1156462734
Kota,Kota,25.18,75.83,India,IN,IND,Rājasthān,,1001694.0,1356820310
Quetta,Quetta,30.1833,67.0,Pakistan,PK,PAK,Balochistan,admin,1001205.0,1586556108
Bareilly,Bareilly,28.364,79.415,India,IN,IND,Uttar Pradesh,,1000000.0,1356698199
Bordeaux,Bordeaux,44.84,-0.58,France,FR,FRA,Nouvelle-Aquitaine,admin,994920.0,1250449238
Xingcheng,Xingcheng,24.1347,115.73,China,CN,CHN,Guangdong,minor,993000.0,1156913008
Taixing,Taixing,32.159,120.029,China,CN,CHN,Jiangsu,minor,990200.0,1156331200
Xinhualu,Xinhualu,34.3964,113.7402,China,CN,CHN,Henan,minor,989900.0,1156544851
Lilongwe,Lilongwe,-13.9833,33.7833,Malawi,MW,MWI,Lilongwe,primary,989318.0,1454688499
Yingcheng,Yingcheng,24.21,113.401,China,CN,CHN,Guangdong,minor,986400.0,1156012356
Luocheng,Luocheng,22.7689,111.5697,China,CN,CHN,Guangdong,minor,984100.0,1156138895
Pekanbaru,Pekanbaru,0.5092,101.4453,Indonesia,ID,IDN,Riau,admin,983356.0,1360422679
Natal,Natal,-6.9838,-60.2699,Brazil,BR,BRA,Amazonas,,980588.0,1076336975
Chiba,Chiba,35.6073,140.1064,Japan,JP,JPN,Chiba,admin,975014.0,1392107144
Kirkuk,Kirkuk,35.4667,44.3167,Iraq,IQ,IRQ,Karkūk,admin,975000.0,1368344172
Hartford,Hartford,41.7661,-72.6834,United States,US,USA,Connecticut,admin,974684.0,1840004773
Huilong,Huilong,31.87,121.703,China,CN,CHN,Jiangsu,minor,972525.0,1156485081
Wuchuan,Wuchuan,21.441,110.779,China,CN,CHN,Guangdong,,972400.0,1156198103
Dnipro,Dnipro,48.4675,35.04,Ukraine,UA,UKR,Dnipropetrovska Oblast,admin,968502.0,1804152933
Nārāyanganj,Narayanganj,23.62,90.5,Bangladesh,BD,BGD,Dhaka,,967951.0,1050424421
Gqeberha,Gqeberha,-33.9581,25.6,South Africa,ZA,ZAF,Eastern Cape,,967677.0,1710918997
Málaga,Malaga,36.7194,-4.42,Spain,ES,ESP,Andalusia,minor,967250.0,1724397372
Marrakech,Marrakech,31.63,-8.0089,Morocco,MA,MAR,Marrakech-Safi,admin,966987.0,1504172585
Louisville,Louisville,38.1663,-85.6485,United States,US,USA,Kentucky,,963812.0,1840030815
Asmara,Asmara,15.3228,38.925,Eritrea,ER,ERI,Ma’ĭkel,primary,963000.0,1232791236
Coimbatore,Coimbatore,11.0167,76.9556,India,IN,IND,Tamil Nādu,,959823.0,1356999503
Maceió,Maceio,-9.6658,-35.735,Brazil,BR,BRA,Alagoas,admin,957916.0,1076440479
Nada,Nada,19.5209,109.5808,China,CN,CHN,Hainan,minor,954259.0,1156911678
Taishan,Taishan,22.2486,112.785,China,CN,CHN,Guangdong,,953900.0,1156105450
Teresina,Teresina,-5.0949,-42.8042,Brazil,BR,BRA,Piauí,admin,953172.0,1076727667
Solāpur,Solapur,17.68,75.92,India,IN,IND,Mahārāshtra,,951558.0,1356314385
Freetown,Freetown,8.4844,-13.2344,Sierra Leone,SL,SLE,Western Area,primary,951000.0,1694085071
Krasnodar,Krasnodar,45.0333,38.9667,Russia,RU,RUS,Krasnodarskiy Kray,admin,948827.0,1643438227
Vientiane,Vientiane,17.98,102.63,Laos,LA,LAO,Viangchan,primary,948487.0,1418732714
Tangier,Tangier,35.7767,-5.8039,Morocco,MA,MAR,Tanger-Tétouan-Al Hoceïma,admin,947952.0,1504861504
Anqiu,Anqiu,36.478,119.219,China,CN,CHN,Shandong,,947723.0,1156592047
Kermānshāh,Kermanshah,34.3325,47.0933,Iran,IR,IRN,Kermānshāh,admin,946651.0,1364535690
Feicheng,Feicheng,36.1861,116.7719,China,CN,CHN,Shandong,,946627.0,1156303834
Buffalo,Buffalo,42.9018,-78.8487,United States,US,USA,New York,,944589.0,1840000386
Hubli,Hubli,15.3502,75.1376,India,IN,IND,Karnātaka,,943788.0,1356422270
Çankaya,Cankaya,39.9244,32.8856,Turkey,TR,TUR,Ankara,minor,942553.0,1792458894
Setagaya,Setagaya,35.6466,139.6532,Japan,JP,JPN,Tōkyō,,940071.0,1392792380
Keçiören,Kecioren,40.0,32.8667,Turkey,TR,TUR,Ankara,minor,939279.0,1792127988
Jerusalem,Jerusalem,31.7789,35.2256,Israel,IL,ISR,Jerusalem,primary,936425.0,1376261644
Meishan,Meishan,34.1736,112.839,China,CN,CHN,Henan,minor,936000.0,1156023073
Mushin,Mushin,6.5333,3.35,Nigeria,NG,NGA,Lagos,minor,935400.0,1566329100
Trujillo,Trujillo,-8.112,-79.0288,Peru,PE,PER,La Libertad,admin,935147.0,1604613706
Kitakyūshū,Kitakyushu,33.8833,130.8833,Japan,JP,JPN,Fukuoka,,935084.0,1392003140
Aguascalientes,Aguascalientes,21.876,-102.296,Mexico,MX,MEX,Aguascalientes,admin,934424.0,1484666646
Taihe,Taihe,30.8706,105.3784,China,CN,CHN,Sichuan,minor,924531.0,1156281983
Riga,Riga,56.9489,24.1064,Latvia,LV,LVA,Rīga,primary,920643.0,1428586192
Taihecun,Taihecun,45.771,131.003,China,CN,CHN,Heilongjiang,minor,920471.0,1156875484
Kashgar,Kashgar,39.4681,75.9938,China,CN,CHN,Xinjiang,minor,920000.0,1156113193
Sŏngnam,Songnam,37.4333,127.15,"Korea, South",KR,KOR,Gyeonggi,,918771.0,1410622472
Trichinopoly,Trichinopoly,10.7903,78.7047,India,IN,IND,Tamil Nādu,,916857.0,1356884472
Cartagena,Cartagena,10.4,-75.5,Colombia,CO,COL,Bolívar,admin,914552.0,1170886102
Qingzhou,Qingzhou,36.6853,118.4796,China,CN,CHN,Shandong,,914047.0,1156874864
Naples,Naples,40.8333,14.25,Italy,IT,ITA,Campania,admin,913462.0,1380646673
Daye,Daye,30.0961,114.9804,China,CN,CHN,Hubei,,909724.0,1156255811
Hengzhou,Hengzhou,22.6799,109.2614,China,CN,CHN,Guangxi,minor,909400.0,1156041202
Padang,Padang,-0.95,100.3531,Indonesia,ID,IDN,Sumatera Barat,admin,909040.0,1360900986
Bridgeport,Bridgeport,41.1918,-73.1954,United States,US,USA,Connecticut,,908251.0,1840004836
Owerri,Owerri,5.485,7.035,Nigeria,NG,NGA,Imo,admin,908109.0,1566679132
Zhuanghe,Zhuanghe,39.681,122.967,China,CN,CHN,Liaoning,,905852.0,1156410076
Quzhou,Quzhou,28.9702,118.8593,China,CN,CHN,Zhejiang,,902767.0,1156180376
Donetsk,Donetsk,48.0028,37.8053,Ukraine,UA,UKR,Donetska Oblast,admin,901645.0,1804963805
Ashmūn,Ashmun,30.2941,31.0342,Egypt,EG,EGY,Al Minūfīyah,,901191.0,1818251892
Bunia,Bunia,1.5667,30.25,Congo (Kinshasa),CD,COD,Ituri,admin,900666.0,1180006418
Jiaozhou,Jiaozhou,36.2647,120.0334,China,CN,CHN,Shandong,,900500.0,1156752602
Wuchang,Wuchang,44.924,127.158,China,CN,CHN,Heilongjiang,minor,897705.0,1156065450
Bucaramanga,Bucaramanga,7.1333,-73.0,Colombia,CO,COL,Santander,admin,893040.0,1170940590
Mérida,Merida,20.97,-89.62,Mexico,MX,MEX,Yucatán,admin,892363.0,1484396779
Yangchun,Yangchun,22.1704,111.7916,China,CN,CHN,Guangdong,,891800.0,1156787307
Osmangazi,Osmangazi,40.1983,29.06,Turkey,TR,TUR,Bursa,minor,891250.0,1792498117
Esenyurt,Esenyurt,41.0342,28.68,Turkey,TR,TUR,İstanbul,,891120.0,1792759121
Morādābād,Moradabad,28.8319,78.7764,India,IN,IND,Uttar Pradesh,,889810.0,1356269375
Bangui,Bangui,4.3733,18.5628,Central African Republic,CF,CAF,Bangui,primary,889231.0,1140080881
Abeokuta,Abeokuta,7.1608,3.3483,Nigeria,NG,NGA,Ogun,admin,888924.0,1566979497
Cancún,Cancun,21.1606,-86.8475,Mexico,MX,MEX,Quintana Roo,minor,888797.0,1484010310
Antipolo,Antipolo,14.5842,121.1763,Philippines,PH,PHL,Rizal,admin,887399.0,1608824345
Dengtalu,Dengtalu,36.1386,114.1066,China,CN,CHN,Henan,minor,887000.0,1156202014
Tabūk,Tabuk,28.3972,36.5789,Saudi Arabia,SA,SAU,Tabūk,admin,886036.0,1682590992
Zhoushan,Zhoushan,29.9856,122.2074,China,CN,CHN,Zhejiang,minor,882932.0,1156200283
Tucson,Tucson,32.1541,-110.8787,United States,US,USA,Arizona,,878320.0,1840022101
Chihuahua,Chihuahua,28.6369,-106.0769,Mexico,MX,MEX,Chihuahua,admin,878062.0,1484335603
Klang,Klang,3.0333,101.45,Malaysia,MY,MYS,Selangor,,878000.0,1458509635
Tiruppūr,Tiruppur,11.1085,77.3411,India,IN,IND,Tamil Nādu,,877778.0,1356539761
Gurgaon,Gurgaon,28.456,77.029,India,IN,IND,Haryāna,,876824.0,1356836043
Laiyang,Laiyang,36.9758,120.7136,China,CN,CHN,Shandong,,874127.0,1156207330
Barinas,Barinas,8.6333,-70.2,Venezuela,VE,VEN,Barinas,admin,873962.0,1862647790
Jalandhar,Jalandhar,31.2569,75.4432,India,IN,IND,Punjab,,873725.0,1356494816
Marseille,Marseille,43.2964,5.37,France,FR,FRA,Provence-Alpes-Côte d’Azur,admin,873076.0,1250774071
Eskişehir,Eskisehir,39.7767,30.5206,Turkey,TR,TUR,Eskişehir,admin,871187.0,1792933981
Gaomi,Gaomi,36.3833,119.75,China,CN,CHN,Shandong,,868715.0,1156673331
Lhasa,Lhasa,29.6534,91.1719,China,CN,CHN,Tibet,admin,867891.0,1156369972
Ipoh,Ipoh,4.5972,101.075,Malaysia,MY,MYS,Perak,admin,866772.0,1458423505
Saltillo,Saltillo,25.4231,-100.9919,Mexico,MX,MEX,Coahuila,admin,864431.0,1484107245
Dushanbe,Dushanbe,38.5367,68.78,Tajikistan,TJ,TJK,Dushanbe,primary,863400.0,1762930616
Ikeja,Ikeja,6.6,3.35,Nigeria,NG,NGA,Lagos,admin,861300.0,1566486388
Cochabamba,Cochabamba,-17.3883,-66.1597,Bolivia,BO,BOL,Cochabamba,admin,856198.0,1068793894
Portsmouth,Portsmouth,50.8058,-1.0872,United Kingdom,GB,GBR,Portsmouth,,855679.0,1826964096
Tyumen,Tyumen,57.15,65.5333,Russia,RU,RUS,Tyumenskaya Oblast’,admin,855600.0,1643040435
Southampton,Southampton,50.9025,-1.4042,United Kingdom,GB,GBR,Southampton,,855569.0,1826602892
Hermosillo,Hermosillo,29.0989,-110.9542,Mexico,MX,MEX,Sonora,admin,855563.0,1484015319
Wuxi,Wuxi,26.58,111.841,China,CN,CHN,Hunan,minor,853197.0,1156698595
Leping,Leping,28.978,117.152,China,CN,CHN,Jiangxi,minor,852800.0,1156705082
Cheongju,Cheongju,36.6333,127.4833,"Korea, South",KR,KOR,Chungbuk,admin,852018.0,1410964361
Shache,Shache,38.4261,77.25,China,CN,CHN,Xinjiang,,851374.0,1156278934
Sale,Sale,34.0333,-6.8,Morocco,MA,MAR,Rabat-Salé-Kénitra,,850403.0,1504989034
Hailun,Hailun,47.4667,126.9667,China,CN,CHN,Heilongjiang,minor,850000.0,1156804488
Macheng,Macheng,31.173,115.008,China,CN,CHN,Hubei,,849090.0,1156949639
Akure,Akure,7.25,5.195,Nigeria,NG,NGA,Ondo,admin,847903.0,1566568277
Ilorin,Ilorin,8.5,4.55,Nigeria,NG,NGA,Kwara,admin,847582.0,1566480168
Erbil,Erbil,36.1912,44.0092,Iraq,IQ,IRQ,Arbīl,admin,846000.0,1368578192
Kathmandu,Kathmandu,27.71,85.32,Nepal,NP,NPL,,primary,845767.0,1524589448
Saratov,Saratov,51.5333,46.0167,Russia,RU,RUS,Saratovskaya Oblast’,admin,845300.0,1643556540
Iguaçu,Iguacu,-22.74,-43.47,Brazil,BR,BRA,Rio de Janeiro,,844583.0,1076339714
Zijinglu,Zijinglu,34.7667,112.9667,China,CN,CHN,Henan,minor,843900.0,1156086381
Turin,Turin,45.0792,7.6761,Italy,IT,ITA,Piedmont,admin,841600.0,1380244627
Yuci,Yuci,37.6823,112.7281,China,CN,CHN,Shanxi,,840000.0,1156177817
Dehui,Dehui,44.535,125.703,China,CN,CHN,Jilin,,839786.0,1156898134
Pietermaritzburg,Pietermaritzburg,-29.6167,30.3833,South Africa,ZA,ZAF,KwaZulu-Natal,admin,839327.0,1710690280
Durban,Durban,-29.8833,31.05,South Africa,ZA,ZAF,KwaZulu-Natal,,838634.0,1710149138
Bhubaneshwar,Bhubaneshwar,20.2644,85.8281,India,IN,IND,Odisha,admin,837737.0,1356140143
Denpasar,Denpasar,-8.65,115.2167,Indonesia,ID,IDN,Bali,admin,834881.0,1360848527
Tongchuan,Tongchuan,34.897,108.945,China,CN,CHN,Shaanxi,minor,834437.0,1156849608
Samarinda,Samarinda,-0.5,117.1378,Indonesia,ID,IDN,Kalimantan Timur,admin,831460.0,1360684979
Chengxiang,Chengxiang,31.564,121.174,China,CN,CHN,Jiangsu,minor,831113.0,1156254788
Rongjiawan,Rongjiawan,29.1409,113.1087,China,CN,CHN,Hunan,minor,826000.0,1156795164
Weichanglu,Weichanglu,37.1792,119.9333,China,CN,CHN,Shandong,minor,824708.0,1156194600
Sakai,Sakai,34.5733,135.4831,Japan,JP,JPN,Ōsaka,,824408.0,1392003291
Renqiu,Renqiu,38.686,116.084,China,CN,CHN,Hebei,minor,822455.0,1156943939
Omaha,Omaha,41.2627,-96.0529,United States,US,USA,Nebraska,,821345.0,1840009315
Xindi,Xindi,29.827,113.476,China,CN,CHN,Hubei,,819446.0,1156263165
Qingping,Qingping,34.539,113.391,China,CN,CHN,Henan,minor,817000.0,1156033855
Gaoyou,Gaoyou,32.7847,119.4432,China,CN,CHN,Jiangsu,minor,811800.0,1156235854
Yiyang,Yiyang,26.4221,112.3999,China,CN,CHN,Hunan,minor,810447.0,1156142520
Hejian,Hejian,38.4466,116.0995,China,CN,CHN,Hebei,minor,810306.0,1156405731
Puxi,Puxi,35.2125,114.735,China,CN,CHN,Henan,minor,809535.0,1156046618
Bhayandar,Bhayandar,19.29,72.85,India,IN,IND,Mahārāshtra,,809378.0,1356019118
Androtsy,Androtsy,-24.1,46.3,Madagascar,MG,MDG,Toliara,,809313.0,1450017816
Culiacán,Culiacan,24.8069,-107.3939,Mexico,MX,MEX,Sinaloa,admin,808416.0,1484516810
Cúcuta,Cucuta,7.8942,-72.5039,Colombia,CO,COL,Norte de Santander,admin,806378.0,1170743755
Danyang,Danyang,32.0,119.586,China,CN,CHN,Jiangsu,,806300.0,1156578273
Dongyang,Dongyang,29.2667,120.2167,China,CN,CHN,Zhejiang,minor,804398.0,1156259752
Kraków,Krakow,50.0614,19.9372,Poland,PL,POL,Małopolskie,admin,804237.0,1616172264
Thessaloníki,Thessaloniki,40.6403,22.9347,Greece,GR,GRC,Kentrikí Makedonía,admin,802572.0,1300397999
Querétaro,Queretaro,20.5875,-100.3928,Mexico,MX,MEX,Querétaro,admin,801940.0,1484604775
Palermo,Palermo,2.8917,-75.4375,Colombia,CO,COL,Huila,minor,800000.0,1170614290
Xigazê,Xigaze,29.25,88.8833,China,CN,CHN,Tibet,minor,798153.0,1156107208
Qamdo,Qamdo,31.143,97.17,China,CN,CHN,Tibet,minor,798067.0,1156277802
McAllen,McAllen,26.2252,-98.2467,United States,US,USA,Texas,,797341.0,1840021024
Libreville,Libreville,0.3903,9.4542,Gabon,GA,GAB,Estuaire,primary,797003.0,1266952885
Seyhan,Seyhan,36.9831,35.3328,Turkey,TR,TUR,Adana,minor,795012.0,1792655353
Niigata,Niigata,37.9161,139.0364,Japan,JP,JPN,Niigata,admin,790646.0,1392913753
Hempstead,Hempstead,40.6629,-73.6089,United States,US,USA,New York,,789763.0,1840005293
Leeds,Leeds,53.7975,-1.5436,United Kingdom,GB,GBR,Leeds,,789194.0,1826343963
Hamamatsu,Hamamatsu,34.7108,137.7275,Japan,JP,JPN,Shizuoka,,788211.0,1392174500
Xiangxiang,Xiangxiang,27.7186,112.5502,China,CN,CHN,Hunan,,787216.0,1156524101
Birmingham,Birmingham,33.5279,-86.7971,United States,US,USA,Alabama,,782111.0,1840006507
Chaohucun,Chaohucun,31.6244,117.8902,China,CN,CHN,Anhui,,782000.0,1156671495
Bucheon,Bucheon,37.5,126.7833,"Korea, South",KR,KOR,Gyeonggi,minor,781119.0,1410428222
Lubango,Lubango,-14.9167,13.5,Angola,AO,AGO,Huíla,admin,776249.0,1024669127
Homs,Homs,34.7308,36.7094,Syria,SY,SYR,Ḩimş,admin,775404.0,1760013934
Bilbao,Bilbao,43.2569,-2.9236,Spain,ES,ESP,Basque Country,minor,775000.0,1724331267
Zouping,Zouping,36.863,117.743,China,CN,CHN,Shandong,,774517.0,1156817518
Frankfurt,Frankfurt,50.1106,8.6822,Germany,DE,DEU,Hesse,minor,773068.0,1276054552
Dali,Dali,25.6065,100.2676,China,CN,CHN,Yunnan,,771128.0,1156840276
Fuyang,Fuyang,30.0553,119.95,China,CN,CHN,Zhejiang,minor,771000.0,1156340393
Khŭjand,Khujand,40.2833,69.6333,Tajikistan,TJ,TJK,Sughd,admin,770000.0,1762372787
Korla,Korla,41.7259,86.1746,China,CN,CHN,Xinjiang,minor,770000.0,1156965620
Albuquerque,Albuquerque,35.1054,-106.6465,United States,US,USA,New Mexico,,769986.0,1840019176
Hamhŭng,Hamhung,39.9167,127.5333,"Korea, North",KP,PRK,Hamnam,admin,768551.0,1408482040
Erzurum,Erzurum,39.9086,41.2769,Turkey,TR,TUR,Erzurum,admin,767848.0,1792511957
Zagreb,Zagreb,45.8131,15.9775,Croatia,HR,HRV,"Zagreb, Grad",primary,767131.0,1191233290
Songzi,Songzi,30.174,111.757,China,CN,CHN,Hubei,,765911.0,1156837705
Patiāla,Patiala,30.34,76.38,India,IN,IND,Punjab,,763280.0,1356458416
Laixi,Laixi,36.8667,120.5333,China,CN,CHN,Shandong,,762900.0,1156973102
Zhongba,Zhongba,31.771,104.755,China,CN,CHN,Sichuan,minor,762140.0,1156515985
Bahawalpur,Bahawalpur,29.3956,71.6836,Pakistan,PK,PAK,Punjab,minor,762111.0,1586038700
Qingnian,Qingnian,36.8494,115.7061,China,CN,CHN,Shandong,minor,760781.0,1156689964
Kaduna,Kaduna,10.5167,7.4333,Nigeria,NG,NGA,Kaduna,admin,760084.0,1566368729
Winnipeg,Winnipeg,49.8844,-97.1464,Canada,CA,CAN,Manitoba,admin,758515.0,1124224963
Trabzon,Trabzon,41.005,39.7225,Turkey,TR,TUR,Trabzon,admin,758237.0,1792019202
Guangshui,Guangshui,31.617,113.826,China,CN,CHN,Hubei,,755910.0,1156267419
Baardheere,Baardheere,2.3333,42.2833,Somalia,SO,SOM,Gedo,,755500.0,1706822684
Shīshgarh,Shishgarh,28.72,79.32,India,IN,IND,Uttar Pradesh,,753815.0,1356494610
Nerima,Nerima,35.7356,139.6517,Japan,JP,JPN,Tōkyō,,752608.0,1392093402
Sizhan,Sizhan,38.9846,106.3828,China,CN,CHN,Ningxia,,751389.0,1156450911
Natal,Natal,-5.7833,-35.2,Brazil,BR,BRA,Rio Grande do Norte,admin,751300.0,1076697777
Lichuan,Lichuan,30.291,108.9364,China,CN,CHN,Hubei,,750670.0,1156302762
Licheng,Licheng,31.4306,119.4788,China,CN,CHN,Jiangsu,minor,749522.0,1156933354
Gaalkacyo,Gaalkacyo,6.7697,47.4308,Somalia,SO,SOM,Mudug,admin,745000.0,1706067930
Thiruvananthapuram,Thiruvananthapuram,8.5241,76.9366,India,IN,IND,Kerala,admin,743691.0,1356024354
Osasco,Osasco,-23.5328,-46.7919,Brazil,BR,BRA,São Paulo,,743432.0,1076786452
Nampula,Nampula,-15.1167,39.2667,Mozambique,MZ,MOZ,Nampula,admin,743000.0,1508958445
Pretoria,Pretoria,-25.7461,28.1881,South Africa,ZA,ZAF,Gauteng,primary,741651.0,1710176249
Kyaukse,Kyaukse,21.6131,96.1303,Burma,MM,MMR,Mandalay,,741071.0,1104814217
Chengguan,Chengguan,35.4623,113.8054,China,CN,CHN,Henan,minor,740435.0,1156866870
Nehe,Nehe,48.4833,124.8833,China,CN,CHN,Heilongjiang,minor,740000.0,1156609562
Cabinda,Cabinda,-5.56,12.19,Angola,AO,AGO,Cabinda,admin,739182.0,1024474012
Kumamoto,Kumamoto,32.8031,130.7078,Japan,JP,JPN,Kumamoto,admin,738385.0,1392106283
Kermān,Kerman,30.2911,57.0678,Iran,IR,IRN,Kermān,admin,738374.0,1364554896
Zunhua,Zunhua,40.189,117.966,China,CN,CHN,Hebei,minor,737011.0,1156756935
Orūmīyeh,Orumiyeh,37.5439,45.0647,Iran,IR,IRN,Āz̄arbāyjān-e Gharbī,admin,736224.0,1364158221
Wugang,Wugang,26.7266,110.6319,China,CN,CHN,Hunan,,734870.0,1156089788
Bağcılar,Bagcilar,41.0344,28.8564,Turkey,TR,TUR,İstanbul,,734369.0,1792374908
Shuangqiao,Shuangqiao,35.067,112.602,China,CN,CHN,Henan,minor,733000.0,1156968311
Umraniye,Umraniye,41.0311,29.1081,Turkey,TR,TUR,İstanbul,,732379.0,1792758804
Yanggok,Yanggok,37.6333,127.2167,"Korea, South",KR,KOR,Gyeonggi,,732376.0,1410188674
Tshikapa,Tshikapa,-6.4167,20.8,Congo (Kinshasa),CD,COD,Kasaï,admin,732000.0,1180581239
Tulsa,Tulsa,36.1283,-95.9042,United States,US,USA,Oklahoma,,731743.0,1840021672
Osogbo,Osogbo,7.7667,4.5667,Nigeria,NG,NGA,Osun,admin,731000.0,1566395088
Nottingham,Nottingham,52.9561,-1.1512,United Kingdom,GB,GBR,Nottingham,,729977.0,1826122597
Hamilton,Hamilton,43.2567,-79.8692,Canada,CA,CAN,Ontario,,729560.0,1124567288
Langzhong,Langzhong,31.558,106.005,China,CN,CHN,Sichuan,minor,728935.0,1156930148
Fresno,Fresno,36.783,-119.7939,United States,US,USA,California,,725276.0,1840020319
Cencheng,Cencheng,22.9167,111.0,China,CN,CHN,Guangxi,minor,724364.0,1156000460
Sorocaba,Sorocaba,-23.5017,-47.4581,Brazil,BR,BRA,São Paulo,,723574.0,1076758708
Guli,Guli,28.9,120.0333,China,CN,CHN,Zhejiang,,723490.0,1156383681
Sagamihara,Sagamihara,35.5667,139.3667,Japan,JP,JPN,Kanagawa,,722973.0,1392967248
Pīshbar,Pishbar,33.3886,59.9789,Iran,IR,IRN,Khorāsān-e Jonūbī,,720207.0,1364328516
Okayama,Okayama,34.65,133.9167,Japan,JP,JPN,Okayama,admin,720043.0,1392954750
Anlu,Anlu,31.2667,113.6667,China,CN,CHN,Hubei,minor,720000.0,1156406202
Concepción,Concepcion,-36.8282,-73.0514,Chile,CL,CHL,Biobío,admin,719944.0,1152838958
Mississauga,Mississauga,43.6,-79.65,Canada,CA,CAN,Ontario,,717961.0,1124112672
Changsha,Changsha,22.3773,112.6982,China,CN,CHN,Guangdong,minor,717700.0,1156011120
Songyang,Songyang,34.4553,113.0253,China,CN,CHN,Henan,minor,717400.0,1156143149
Lviv,Lviv,49.8425,24.0322,Ukraine,UA,UKR,Lvivska Oblast,admin,717273.0,1804939658
Shihezi,Shihezi,44.3054,86.0804,China,CN,CHN,Xinjiang,minor,717000.0,1156232270
Vilnius,Vilnius,54.6872,25.28,Lithuania,LT,LTU,Vilniaus Miestas,primary,716856.0,1440887149
Marka,Marka,1.7133,44.7656,Somalia,SO,SOM,Shabeellaha Hoose,admin,716361.0,1706165964
Enugu,Enugu,6.4528,7.5111,Nigeria,NG,NGA,Enugu,admin,715774.0,1566212729
Valenzuela,Valenzuela,14.7,120.98,Philippines,PH,PHL,Valenzuela,admin,714978.0,1608492120
Yatou,Yatou,37.1653,122.4867,China,CN,CHN,Shandong,minor,714211.0,1156009046
Uberlândia,Uberlandia,-18.9231,-48.2886,Brazil,BR,BRA,Minas Gerais,,713232.0,1076495001
Xichang,Xichang,27.8944,102.2644,China,CN,CHN,Sichuan,minor,712434.0,1156116456
Zaporizhzhia,Zaporizhzhia,47.85,35.1175,Ukraine,UA,UKR,Zaporizka Oblast,admin,710052.0,1804644752
Bhiwandi,Bhiwandi,19.2967,73.0631,India,IN,IND,Mahārāshtra,,709665.0,1356763571
Bristol,Bristol,51.4536,-2.5975,United Kingdom,GB,GBR,"Bristol, City of",,707412.0,1826921049
Charleston,Charleston,32.8168,-79.9687,United States,US,USA,South Carolina,,706884.0,1840015163
Sahāranpur,Saharanpur,29.964,77.546,India,IN,IND,Uttar Pradesh,,705478.0,1356139858
Dashiqiao,Dashiqiao,40.6167,122.5167,China,CN,CHN,Liaoning,minor,704891.0,1156141962
Yenimahalle,Yenimahalle,39.9719,32.8119,Turkey,TR,TUR,Ankara,minor,704652.0,1792692469
Warangal,Warangal,17.9689,79.5941,India,IN,IND,Telangāna,,704570.0,1356851618
Nampo,Nampo,38.7333,125.4,"Korea, North",KP,PRK,Namp’o,,703317.0,1408358410
Dasmariñas,Dasmarinas,14.33,120.94,Philippines,PH,PHL,Cavite,,703141.0,1608418544
Jaboatão,Jaboatao,-8.1803,-35.0014,Brazil,BR,BRA,Pernambuco,,702621.0,1076000699
Chisinau,Chisinau,47.0228,28.8353,Moldova,MD,MDA,Chişinău,primary,702300.0,1498011437
Shiliguri,Shiliguri,26.71,88.43,India,IN,IND,West Bengal,,701489.0,1356724691
Boosaaso,Boosaaso,11.2886,49.1819,Somalia,SO,SOM,Bari,admin,700906.0,1706054548
Latakia,Latakia,35.5167,35.7833,Syria,SY,SYR,Al Lādhiqīyah,admin,700000.0,1760555544
Rochester,Rochester,43.168,-77.6162,United States,US,USA,New York,,699921.0,1840000373
Edogawa,Edogawa,35.7,139.8833,Japan,JP,JPN,Chiba,,697932.0,1392135698
Ḩamāh,Hamah,35.1333,36.75,Syria,SY,SYR,Ḩamāh,admin,696863.0,1760197502
Qianxi,Qianxi,27.0087,106.0323,China,CN,CHN,Guizhou,,695947.0,1156919716
Bauchi,Bauchi,10.3158,9.8442,Nigeria,NG,NGA,Bauchi,admin,693700.0,1566483284
Pendik,Pendik,40.8747,29.235,Turkey,TR,TUR,İstanbul,minor,693599.0,1792824929
Salem,Salem,11.65,78.15,India,IN,IND,Tamil Nādu,,693236.0,1356567087
Shishi,Shishi,24.7167,118.7,China,CN,CHN,Fujian,minor,693000.0,1156077046
Sinnūris,Sinnuris,29.4072,30.8667,Egypt,EG,EGY,Al Fayyūm,,692701.0,1818442898
Cocody,Cocody,5.35,-3.9667,Côte d’Ivoire,CI,CIV,Abidjan,,692583.0,1384351512
Lokoja,Lokoja,7.8019,6.7442,Nigeria,NG,NGA,Kogi,admin,692050.0,1566772925
Guadalupe,Guadalupe,25.6775,-100.2597,Mexico,MX,MEX,Nuevo León,minor,691931.0,1484002410
Gaizhou,Gaizhou,40.4,122.35,China,CN,CHN,Liaoning,minor,691595.0,1156145272
Leling,Leling,37.73,117.232,China,CN,CHN,Shandong,minor,689867.0,1156044041
Mamak,Mamak,39.9422,32.9231,Turkey,TR,TUR,Ankara,minor,687535.0,1792465227
Jianshe,Jianshe,34.2137,113.7629,China,CN,CHN,Henan,minor,687130.0,1156444449
Tolyatti,Tolyatti,53.5089,49.4222,Russia,RU,RUS,Samarskaya Oblast’,,685619.0,1643256295
Shizuoka,Shizuoka,34.9756,138.3828,Japan,JP,JPN,Shizuoka,admin,685589.0,1392235505
Jingcheng,Jingcheng,32.009,120.263,China,CN,CHN,Jiangsu,minor,684360.0,1156033208
Agege,Agege,6.6219,3.3258,Nigeria,NG,NGA,Lagos,minor,683600.0,1566564887
Zaragoza,Zaragoza,41.65,-0.8833,Spain,ES,ESP,Aragon,admin,682513.0,1724907391
Adachi,Adachi,35.7833,139.8,Japan,JP,JPN,Tōkyō,,682326.0,1392464568
Xinmin,Xinmin,41.997,122.823,China,CN,CHN,Liaoning,,680000.0,1156368551
Rasht,Rasht,37.2744,49.5889,Iran,IR,IRN,Gīlān,admin,679995.0,1364630382
Shanhu,Shanhu,29.6,120.8167,China,CN,CHN,Zhejiang,minor,679762.0,1156029691
Zhongshu,Zhongshu,27.7919,106.4013,China,CN,CHN,Guizhou,,679624.0,1156658422
Cotonou,Cotonou,6.3667,2.4333,Benin,BJ,BEN,Littoral,primary,679012.0,1204955174
Tasikmalaya,Tasikmalaya,-7.3161,108.1975,Indonesia,ID,IDN,Jawa Barat,,678027.0,1360027771
Kochi,Kochi,9.9312,76.2673,India,IN,IND,Kerala,,677381.0,1356707865
Soledad,Soledad,10.9167,-74.75,Colombia,CO,COL,Atlántico,minor,676014.0,1170765625
Dhūlia,Dhulia,20.8997,74.7697,India,IN,IND,Mahārāshtra,,675000.0,1356224695
Gorakhpur,Gorakhpur,26.7637,83.4039,India,IN,IND,Uttar Pradesh,,673446.0,1356190221
Bahār,Bahar,34.9028,48.4425,Iran,IR,IRN,Hamadān,minor,673405.0,1364891653
Kumul,Kumul,42.8193,93.5151,China,CN,CHN,Xinjiang,minor,673383.0,1156131545
Wrocław,Wroclaw,51.11,17.0325,Poland,PL,POL,Dolnośląskie,admin,672929.0,1616108520
Murcia,Murcia,37.9861,-1.1303,Spain,ES,ESP,Murcia,admin,672773.0,1724107739
Pinghu,Pinghu,30.7005,121.0104,China,CN,CHN,Zhejiang,,671834.0,1156720536
Guankou,Guankou,30.988,103.647,China,CN,CHN,Sichuan,,671200.0,1156503907
Łódź,Lodz,51.7769,19.4547,Poland,PL,POL,Łódzkie,admin,670642.0,1616832750
Guntūr,Guntur,16.3008,80.4428,India,IN,IND,Andhra Pradesh,,670073.0,1356374905
Bhāngar,Bhangar,22.58,88.42,India,IN,IND,West Bengal,,670000.0,1356177796
Dayton,Dayton,39.7805,-84.2003,United States,US,USA,Ohio,,668825.0,1840034249
Qionghu,Qionghu,28.945,112.598,China,CN,CHN,Hunan,minor,667104.0,1156678111
Zhaodong,Zhaodong,46.051,125.962,China,CN,CHN,Heilongjiang,minor,666532.0,1156601489
Bulawayo,Bulawayo,-20.17,28.58,Zimbabwe,ZW,ZWE,Bulawayo,admin,665940.0,1716032632
Huambo,Huambo,-12.7767,15.7347,Angola,AO,AGO,Huambo,admin,665564.0,1024079828
Aracaju,Aracaju,-10.9167,-37.05,Brazil,BR,BRA,Sergipe,admin,664908.0,1076527830
Bacoor,Bacoor,14.4624,120.9645,Philippines,PH,PHL,Cavite,,664625.0,1608869358
Wenchang,Wenchang,31.054,116.9507,China,CN,CHN,Anhui,minor,664455.0,1156574542
Rotterdam,Rotterdam,51.92,4.48,Netherlands,NL,NLD,Zuid-Holland,minor,664311.0,1528892850
Tlaquepaque,Tlaquepaque,20.6167,-103.3167,Mexico,MX,MEX,Jalisco,minor,664193.0,1484087945
Villavicencio,Villavicencio,4.15,-73.6333,Colombia,CO,COL,Meta,admin,664148.0,1170426927
Shulan,Shulan,44.4059,126.9655,China,CN,CHN,Jilin,minor,663403.0,1156989733
Makhachkala,Makhachkala,42.9667,47.4833,Russia,RU,RUS,Dagestan,admin,662600.0,1643580480
Banjarmasin,Banjarmasin,-3.32,114.5925,Indonesia,ID,IDN,Kalimantan Selatan,admin,662230.0,1360685223
Narela,Narela,28.8527,77.0929,India,IN,IND,Delhi,,661994.0,1356542019
Jalingo,Jalingo,8.9,11.3667,Nigeria,NG,NGA,Taraba,admin,660213.0,1566732241
Sargodha,Sargodha,32.0836,72.6711,Pakistan,PK,PAK,Punjab,minor,659862.0,1586696588
Karaikandi,Karaikandi,24.8309,92.6143,India,IN,IND,Assam,,659260.0,1356669973
Bouaké,Bouake,7.6833,-5.0167,Côte d’Ivoire,CI,CIV,Vallée du Bandama,admin,659233.0,1384983838
Brampton,Brampton,43.6833,-79.7667,Canada,CA,CAN,Ontario,,656480.0,1124625989
Durango,Durango,24.025,-104.6675,Mexico,MX,MEX,Durango,admin,654876.0,1484854616
Tondo,Tondo,14.617,120.967,Philippines,PH,PHL,Manila,,654220.0,1608204201
Dayrūţ,Dayrut,27.5667,30.8167,Egypt,EG,EGY,Asyūţ,,653847.0,1818248895
Tlalnepantla,Tlalnepantla,19.5367,-99.1947,Mexico,MX,MEX,México,minor,653410.0,1484861603
Ansan,Ansan,37.3167,126.8333,"Korea, South",KR,KOR,Gyeonggi,,652800.0,1410585171
Xiping,Xiping,25.6005,103.8166,China,CN,CHN,Yunnan,minor,652604.0,1156207794
Huế,Hue,16.4667,107.5792,Vietnam,VN,VNM,Thừa Thiên-Huế,admin,652572.0,1704016023
Sanhe,Sanhe,40.0167,117.0833,China,CN,CHN,Hebei,minor,652042.0,1156476348
Cuiabá,Cuiaba,-15.5958,-56.0969,Brazil,BR,BRA,Mato Grosso,admin,650912.0,1076112309
Jieshou,Jieshou,33.257,115.3746,China,CN,CHN,Anhui,,650870.0,1156304827
Selçuklu,Selcuklu,37.8814,32.4922,Turkey,TR,TUR,Konya,minor,648850.0,1792683478
Suohe,Suohe,34.7833,113.35,China,CN,CHN,Henan,minor,648700.0,1156236948
Guixi,Guixi,28.2925,117.2454,China,CN,CHN,Jiangxi,minor,647240.0,1156259342
Izhevsk,Izhevsk,56.8333,53.1833,Russia,RU,RUS,Udmurtiya,admin,646277.0,1643983138
Honchō,Honcho,35.6946,139.9826,Japan,JP,JPN,Chiba,,644668.0,1392505502
Wuxue,Wuxue,29.844,115.561,China,CN,CHN,Hubei,minor,644247.0,1156027100
Yıldırım,Yildirim,40.11,29.0821,Turkey,TR,TUR,Bursa,minor,643681.0,1792764051
Bhāvnagar,Bhavnagar,21.76,72.15,India,IN,IND,Gujarāt,,643365.0,1356982375
Jinghong,Jinghong,22.009,100.797,China,CN,CHN,Yunnan,minor,642737.0,1156181533
Tengyue,Tengyue,25.0167,98.4833,China,CN,CHN,Yunnan,minor,642481.0,1156832866
Ruiming,Ruiming,25.886,116.027,China,CN,CHN,Jiangxi,,640600.0,1156104573
Qufu,Qufu,35.5819,116.9862,China,CN,CHN,Shandong,,640498.0,1156490037
Noida,Noida,28.57,77.32,India,IN,IND,Uttar Pradesh,,637272.0,1356002491
Xinshi,Xinshi,31.1333,113.1167,China,CN,CHN,Hubei,minor,636776.0,1156422214
Manama,Manama,26.225,50.5775,Bahrain,BH,BHR,Al ‘Āşimah,primary,635000.0,1048989486
Benghazi,Benghazi,32.1167,20.0667,Libya,LY,LBY,Banghāzī,admin,631555.0,1434915572
Chuxiong,Chuxiong,25.033,101.5459,China,CN,CHN,Yunnan,,631530.0,1156225985
Barnaul,Barnaul,53.3486,83.7764,Russia,RU,RUS,Altayskiy Kray,admin,631124.0,1643318931
Palermo,Palermo,38.1111,13.3517,Italy,IT,ITA,Sicilia,admin,630167.0,1380428434
Düsseldorf,Dusseldorf,51.2333,6.7833,Germany,DE,DEU,North Rhine-Westphalia,admin,629047.0,1276615258
Allentown,Allentown,40.5961,-75.4756,United States,US,USA,Pennsylvania,,627863.0,1840001044
Xinxing,Xinxing,39.8667,124.15,China,CN,CHN,Liaoning,minor,627475.0,1156258586
Ţūkh,Tukh,30.3539,31.2007,Egypt,EG,EGY,Al Qalyūbīyah,,627290.0,1818411967
Glasgow,Glasgow,55.8611,-4.25,United Kingdom,GB,GBR,Glasgow City,,626410.0,1826836462
Namangan,Namangan,41.0011,71.6683,Uzbekistan,UZ,UZB,Namangan,admin,626120.0,1860894033
Bhilai,Bhilai,21.21,81.38,India,IN,IND,Chhattīsgarh,,624700.0,1356098574
Ulyanovsk,Ulyanovsk,54.3167,48.3667,Russia,RU,RUS,Ul’yanovskaya Oblast’,admin,624518.0,1643668944
Mangalore,Mangalore,12.8681,74.8425,India,IN,IND,Karnātaka,,623841.0,1356972351
Kaihua,Kaihua,23.387,104.233,China,CN,CHN,Yunnan,minor,623772.0,1156017759
Irkutsk,Irkutsk,52.2833,104.2833,Russia,RU,RUS,Irkutskaya Oblast’,admin,623736.0,1643439037
Meilan,Meilan,19.999,110.403,China,CN,CHN,Hainan,,623667.0,1156736601
Bazhou,Bazhou,39.1333,116.3833,China,CN,CHN,Hebei,minor,622975.0,1156127276
Ogden,Ogden,41.2279,-111.9682,United States,US,USA,Utah,,622918.0,1840020135
Turpan,Turpan,42.9512,89.1895,China,CN,CHN,Xinjiang,minor,622903.0,1156573684
Jos,Jos,9.9167,8.8903,Nigeria,NG,NGA,Plateau,admin,622802.0,1566773679
Contagem,Contagem,-19.9319,-44.0539,Brazil,BR,BRA,Minas Gerais,,621865.0,1076845191
Jambi,Jambi,-1.59,103.61,Indonesia,ID,IDN,Jambi,admin,619553.0,1360645580
Ḩalwān,Halwan,29.8453,31.3333,Egypt,EG,EGY,Al Qāhirah,,619293.0,1818000039
Provo,Provo,40.2457,-111.6457,United States,US,USA,Utah,,619218.0,1840020174
Pontianak,Pontianak,-0.0206,109.3414,Indonesia,ID,IDN,Kalimantan Barat,admin,618388.0,1360992394
Meihekou,Meihekou,42.5407,125.7107,China,CN,CHN,Jilin,minor,618251.0,1156474288
Jurong,Jurong,31.946,119.164,China,CN,CHN,Jiangsu,,617706.0,1156897463
Bihtā,Bihta,25.5619,84.87,India,IN,IND,Bihār,,617427.0,1356234338
Yuhuan,Yuhuan,28.1277,121.2288,China,CN,CHN,Zhejiang,,616346.0,1156608968
Joinvile,Joinvile,-26.3204,-48.8437,Brazil,BR,BRA,Santa Catarina,,616323.0,1076050637
Khabarovsk,Khabarovsk,48.4833,135.0833,Russia,RU,RUS,Khabarovskiy Kray,admin,616242.0,1643175363
Leipzig,Leipzig,51.34,12.375,Germany,DE,DEU,Saxony,minor,616093.0,1276563678
Xinji,Xinji,37.943,115.218,China,CN,CHN,Hebei,minor,615919.0,1156456552
Knoxville,Knoxville,35.9692,-83.9496,United States,US,USA,Tennessee,,615829.0,1840014486
Etimesgut,Etimesgut,39.9458,32.6694,Turkey,TR,TUR,Ankara,minor,614891.0,1792684065
Changping,Changping,40.2248,116.1944,China,CN,CHN,Beijing,,614821.0,1156166828
Tallinn,Tallinn,59.4372,24.7453,Estonia,EE,EST,Tallinn,primary,614561.0,1233260021
Chimalhuacán,Chimalhuacan,19.4167,-98.9,Mexico,MX,MEX,México,minor,614453.0,1484504936
Kandahār,Kandahar,31.62,65.7158,Afghanistan,AF,AFG,Kandahār,admin,614254.0,1004003059
Serang,Serang,-6.12,106.1503,Indonesia,ID,IDN,Banten,admin,613356.0,1360329102
Zhangshu,Zhangshu,28.0546,115.5462,China,CN,CHN,Jiangxi,,610424.0,1156996913
Yukarıkaraman,Yukarikaraman,36.9167,30.6833,Turkey,TR,TUR,Antalya,,608675.0,1792276393
Gothenburg,Gothenburg,57.7075,11.9675,Sweden,SE,SWE,Västra Götaland,admin,607882.0,1752059374
Kuantan,Kuantan,3.8167,103.3333,Malaysia,MY,MYS,Pahang,admin,607778.0,1458763489
Kawaguchi,Kawaguchi,35.8077,139.7241,Japan,JP,JPN,Saitama,,607373.0,1392975133
Cuttack,Cuttack,20.5236,85.7881,India,IN,IND,Odisha,,606007.0,1356872061
Salīmpur,Salimpur,26.3,83.9167,India,IN,IND,Uttar Pradesh,,604483.0,1356110964
Malanje,Malanje,-9.5333,16.35,Angola,AO,AGO,Malanje,admin,604215.0,1024774947
Columbia,Columbia,34.0378,-80.9036,United States,US,USA,South Carolina,admin,604065.0,1840014730
Djibouti,Djibouti,11.5883,43.145,Djibouti,DJ,DJI,Djibouti,primary,603900.0,1262028958
Zhuozhou,Zhuozhou,39.485,115.974,China,CN,CHN,Hebei,minor,603535.0,1156045160
Tianchang,Tianchang,32.6811,119.0137,China,CN,CHN,Anhui,minor,602840.0,1156770851
Tunis,Tunis,36.8064,10.1817,Tunisia,TN,TUN,Tunis,primary,602560.0,1788742103
Yaroslavl,Yaroslavl,57.6167,39.85,Russia,RU,RUS,Yaroslavskaya Oblast’,admin,601403.0,1643338528
Bacolod,Bacolod,10.6765,122.9509,Philippines,PH,PHL,Bacolod,admin,600783.0,1608244137
Garoua,Garoua,9.3,13.4,Cameroon,CM,CMR,Nord,admin,600000.0,1120803808
Bafoussam,Bafoussam,5.4667,10.4167,Cameroon,CM,CMR,Ouest,admin,600000.0,1120435460
Haifa,Haifa,32.8192,34.9992,Israel,IL,ISR,Haifa,admin,600000.0,1376133727
Raurkela,Raurkela,22.2492,84.8828,India,IN,IND,Odisha,,600000.0,1356096816
Tumkūr,Tumkur,13.34,77.1,India,IN,IND,Karnātaka,,599078.0,1356033724
Balikpapan,Balikpapan,-1.2768,116.8277,Indonesia,ID,IDN,Kalimantan Timur,,598043.0,1360500922
Somolu,Somolu,6.5408,3.3872,Nigeria,NG,NGA,Lagos,minor,597400.0,1566609760
Vladivostok,Vladivostok,43.1333,131.9,Russia,RU,RUS,Primorskiy Kray,admin,597240.0,1643832017
Melikgazi,Melikgazi,38.7167,35.5,Turkey,TR,TUR,Kayseri,minor,594344.0,1792810254
Kagoshima,Kagoshima,31.6,130.55,Japan,JP,JPN,Kagoshima,admin,593754.0,1392120675
Sihui,Sihui,23.3265,112.7338,China,CN,CHN,Guangdong,,593400.0,1156609451
Dortmund,Dortmund,51.5139,7.4653,Germany,DE,DEU,North Rhine-Westphalia,minor,593317.0,1276562886
Irapuato,Irapuato,20.6667,-101.35,Mexico,MX,MEX,Guanajuato,minor,592953.0,1484625454
Luocheng,Luocheng,30.99,104.25,China,CN,CHN,Sichuan,minor,591115.0,1156180482
Albany,Albany,42.6664,-73.7987,United States,US,USA,New York,admin,590694.0,1840000417
Pereira,Pereira,4.8143,-75.6946,Colombia,CO,COL,Risaralda,admin,590554.0,1170386718
Gaza,Gaza,31.5069,34.456,Gaza Strip,XG,XGZ,,primary,590481.0,1916116052
Uvira,Uvira,-3.4,29.15,Congo (Kinshasa),CD,COD,Sud-Kivu,,590000.0,1180205443
Reynosa,Reynosa,26.0922,-98.2778,Mexico,MX,MEX,Tamaulipas,minor,589466.0,1484737671
Zāhedān,Zahedan,29.5025,60.8558,Iran,IR,IRN,Sīstān va Balūchestān,admin,587730.0,1364072353
Cimahi,Cimahi,-6.8712,107.5548,Indonesia,ID,IDN,Jawa Barat,,586580.0,1360181436
Mbale,Mbale,1.0806,34.175,Uganda,UG,UGA,Mbale,admin,586300.0,1800265900
Wenlan,Wenlan,23.3961,103.3649,China,CN,CHN,Yunnan,minor,585976.0,1156385754
Shangzhi,Shangzhi,45.2116,127.962,China,CN,CHN,Heilongjiang,minor,585386.0,1156107332
Essen,Essen,51.4508,7.0131,Germany,DE,DEU,North Rhine-Westphalia,minor,584580.0,1276769247
Itabashi,Itabashi,35.7667,139.6833,Japan,JP,JPN,Tōkyō,,584483.0,1392836404
Botou,Botou,38.0833,116.5833,China,CN,CHN,Hebei,minor,584308.0,1156018338
Tenkāsi,Tenkasi,8.9564,77.3152,India,IN,IND,Tamil Nādu,,580000.0,1356465590
Kingston,Kingston,17.9714,-76.7931,Jamaica,JM,JAM,Kingston,primary,580000.0,1388709177
Tuxtla,Tuxtla,16.7528,-93.1167,Mexico,MX,MEX,Chiapas,admin,578830.0,1484832519
Xiulin,Xiulin,29.7209,112.4254,China,CN,CHN,Hubei,,577022.0,1156284109
Mymensingh,Mymensingh,24.7539,90.4031,Bangladesh,BD,BGD,Mymensingh,admin,576927.0,1050399881
Hachiōji,Hachioji,35.6664,139.316,Japan,JP,JPN,Tōkyō,,575721.0,1392172935
Iloilo,Iloilo,10.72,122.57,Philippines,PH,PHL,Iloilo,admin,574000.0,1608875987
Tomsk,Tomsk,56.5,84.9667,Russia,RU,RUS,Tomskaya Oblast’,admin,572740.0,1643258928
Rabat,Rabat,34.0209,-6.8416,Morocco,MA,MAR,Rabat-Salé-Kénitra,primary,572717.0,1504023252
Sincan,Sincan,39.9594,32.5767,Turkey,TR,TUR,Ankara,minor,572609.0,1792007259
Bakersfield,Bakersfield,35.3529,-119.0359,United States,US,USA,California,,571992.0,1840019148
Kottayam,Kottayam,9.5916,76.5222,India,IN,IND,Kerala,,571856.0,1356307269
Luofeng,Luofeng,37.359,120.396,China,CN,CHN,Shandong,minor,570898.0,1156158643
Nakuru,Nakuru,-0.3,36.0667,Kenya,KE,KEN,Nakuru,admin,570674.0,1404140179
Lingyuan,Lingyuan,41.25,119.4,China,CN,CHN,Liaoning,,570660.0,1156184681
Tonalá,Tonala,20.6167,-103.2333,Mexico,MX,MEX,Jalisco,minor,569913.0,1484750897
Bremen,Bremen,53.0758,8.8072,Germany,DE,DEU,Bremen,admin,569396.0,1276376509
Irbid,Irbid,32.55,35.85,Jordan,JO,JOR,Irbid,admin,569068.0,1400221568
Macau,Macau,22.2006,113.5461,Macau,MO,MAC,,,568700.0,1446227359
Surrey,Surrey,49.19,-122.8489,Canada,CA,CAN,British Columbia,,568322.0,1124001454
Durgāpur,Durgapur,23.55,87.32,India,IN,IND,West Bengal,,566937.0,1356045686
Shenzhou,Shenzhou,38.002,115.56,China,CN,CHN,Hebei,minor,566087.0,1156921843
Orenburg,Orenburg,51.7833,55.1,Russia,RU,RUS,Orenburgskaya Oblast’,admin,564773.0,1643685056
Kuiju,Kuiju,36.8667,119.4,China,CN,CHN,Shandong,minor,564501.0,1156174997
Zhenzhou,Zhenzhou,32.2723,119.1848,China,CN,CHN,Jiangsu,minor,564021.0,1156634387
Āsansol,Asansol,23.68,86.99,India,IN,IND,West Bengal,,563917.0,1356093694
Dresden,Dresden,51.05,13.74,Germany,DE,DEU,Saxony,admin,563311.0,1276561036
Bello,Bello,6.3333,-75.5667,Colombia,CO,COL,Antioquia,minor,561955.0,1170423489
Kolhāpur,Kolhapur,16.6917,74.2333,India,IN,IND,Mahārāshtra,,561489.0,1356110593
Wencheng,Wencheng,19.617,110.7551,China,CN,CHN,Hainan,minor,560894.0,1156985313
Lanxi,Lanxi,29.208,119.458,China,CN,CHN,Zhejiang,,560514.0,1156686465
Dangyang,Dangyang,30.821,111.789,China,CN,CHN,Hubei,,560000.0,1156585505
Kemerovo,Kemerovo,55.3667,86.0667,Russia,RU,RUS,Kemerovskaya Oblast’,admin,558973.0,1643216311
Genoa,Genoa,44.4111,8.9328,Italy,IT,ITA,Liguria,admin,558745.0,1380716540
Herāt,Herat,34.3419,62.2031,Afghanistan,AF,AFG,Herāt,admin,556205.0,1004237782
Londrina,Londrina,-23.31,-51.1628,Brazil,BR,BRA,Paraná,,555937.0,1076723241
Uyo,Uyo,5.0333,7.9275,Nigeria,NG,NGA,Akwa Ibom,admin,554906.0,1566061694
Hamadān,Hamadan,34.8064,48.5161,Iran,IR,IRN,Hamadān,admin,554406.0,1364126377
Luanzhou,Luanzhou,39.741,118.704,China,CN,CHN,Hebei,minor,554315.0,1156092104
Chiclayo,Chiclayo,-6.763,-79.8366,Peru,PE,PER,Lambayeque,admin,552508.0,1604799615
Surakarta,Surakarta,-7.5667,110.8167,Indonesia,ID,IDN,Jawa Tengah,,552118.0,1360853933
Novokuznetsk,Novokuznetsk,53.7667,87.1333,Russia,RU,RUS,Kemerovskaya Oblast’,,552105.0,1643628717
Ajmer,Ajmer,26.4499,74.6399,India,IN,IND,Rājasthān,,551101.0,1356058258
Kimhae,Kimhae,35.2342,128.8811,"Korea, South",KR,KOR,Gyeongnam,,550758.0,1410836094
Nānded,Nanded,19.15,77.3,India,IN,IND,Mahārāshtra,,550439.0,1356722310
Wuhai,Wuhai,39.655,106.794,China,CN,CHN,Inner Mongolia,minor,550000.0,1156575615
Palma,Palma,39.5667,2.65,Spain,ES,ESP,Balearic Islands,admin,550000.0,1724728111
Rustenburg,Rustenburg,-25.6667,27.2428,South Africa,ZA,ZAF,North West,,549575.0,1710326039
Amrāvati,Amravati,20.9258,77.7647,India,IN,IND,Mahārāshtra,,549370.0,1356462099
Lisbon,Lisbon,38.7253,-9.15,Portugal,PT,PRT,Lisboa,primary,548703.0,1620619017
Yanji,Yanji,42.9,129.5,China,CN,CHN,Jilin,minor,548700.0,1156405468
Huanghua,Huanghua,38.372,117.33,China,CN,CHN,Hebei,minor,548507.0,1156131099
Anyang,Anyang,37.3833,126.9333,"Korea, South",KR,KOR,Gyeonggi,,548372.0,1410581095
Andijon,Andijon,40.7833,72.3333,Uzbekistan,UZ,UZB,Andijon,admin,547800.0,1860445095
Manchester,Manchester,53.479,-2.2452,United Kingdom,GB,GBR,Manchester,,547627.0,1826246335
Nellore,Nellore,14.45,79.99,India,IN,IND,Andhra Pradesh,,547621.0,1356280972
Poznań,Poznan,52.4083,16.9336,Poland,PL,POL,Wielkopolskie,admin,546859.0,1616725607
Samarkand,Samarkand,39.6547,66.9758,Uzbekistan,UZ,UZB,Samarqand,admin,546303.0,1860388706
Xingcheng,Xingcheng,40.6167,120.7333,China,CN,CHN,Liaoning,,546176.0,1156705922
Wancheng,Wancheng,18.8,110.4,China,CN,CHN,Hainan,minor,545992.0,1156017483
Kaiyuan,Kaiyuan,42.546,124.038,China,CN,CHN,Liaoning,,545624.0,1156081841
Hannover,Hannover,52.3667,9.7167,Germany,DE,DEU,Lower Saxony,admin,545045.0,1276457707
Valledupar,Valledupar,10.4833,-73.25,Colombia,CO,COL,Cesar,admin,544134.0,1170481949
Fengcheng,Fengcheng,40.45,124.0667,China,CN,CHN,Liaoning,,543933.0,1156519626
Ghulja,Ghulja,43.9,81.35,China,CN,CHN,Xinjiang,minor,542507.0,1156064979
Ixtapaluca,Ixtapaluca,19.3186,-98.8822,Mexico,MX,MEX,México,minor,542211.0,1484452937
Fuding,Fuding,27.2,120.2,China,CN,CHN,Fujian,minor,542000.0,1156530120
Akron,Akron,41.0798,-81.5219,United States,US,USA,Ohio,,541945.0,1840000791
Mbeya,Mbeya,-8.9,33.45,Tanzania,TZ,TZA,Mbeya,admin,541603.0,1834396594
Xiangyang,Xiangyang,34.2995,108.4905,China,CN,CHN,Shaanxi,,541554.0,1156215566
Ibagué,Ibague,4.4333,-75.2333,Colombia,CO,COL,Tolima,admin,541101.0,1170245063
Ryazan,Ryazan,54.63,39.7425,Russia,RU,RUS,Ryazanskaya Oblast’,admin,537622.0,1643205787
Florianópolis,Florianopolis,-27.6122,-48.4853,Brazil,BR,BRA,Santa Catarina,admin,537213.0,1076190259
Nilüfer,Nilufer,40.2833,28.95,Turkey,TR,TUR,Bursa,minor,536365.0,1792222655
Antwerp,Antwerp,51.2178,4.4003,Belgium,BE,BEL,Flanders,minor,536079.0,1056168623
Kassala,Kassala,15.45,36.4,Sudan,SD,SDN,Kassala,admin,536009.0,1729157224
Aksu,Aksu,41.185,80.2904,China,CN,CHN,Xinjiang,minor,535657.0,1156436913
Salta,Salta,-24.7833,-65.4167,Argentina,AR,ARG,Salta,admin,535303.0,1032926124
Dispur,Dispur,26.1397,91.7925,India,IN,IND,Assam,admin,534872.0,1356960169
Gulbarga,Gulbarga,17.329,76.825,India,IN,IND,Karnātaka,,533587.0,1356091187
Nansana,Nansana,0.3639,32.5286,Uganda,UG,UGA,Wakiso,,532800.0,1800032516
Mingguang,Mingguang,32.7833,117.9667,China,CN,CHN,Anhui,,532732.0,1156864248
Concord,Concord,37.9722,-122.0016,United States,US,USA,California,,531175.0,1840018905
Beira,Beira,-19.8333,34.85,Mozambique,MZ,MOZ,Sofala,admin,530604.0,1508407369
Yazd,Yazd,31.8822,54.3397,Iran,IR,IRN,Yazd,admin,529673.0,1364429875
Ardabīl,Ardabil,38.2425,48.29,Iran,IR,IRN,Ardabīl,admin,529374.0,1364437616
Touba,Touba,14.8667,-15.8833,Senegal,SN,SEN,Diourbel,,529176.0,1686956738
Bīkaner,Bikaner,28.0181,73.3169,India,IN,IND,Rājasthān,,529007.0,1356026593
Gaobeidian,Gaobeidian,39.327,115.874,China,CN,CHN,Hebei,minor,528903.0,1156487293
Ndola,Ndola,-12.9689,28.6325,Zambia,ZM,ZMB,Copperbelt,admin,528330.0,1894032745
Himeji,Himeji,34.8167,134.6833,Japan,JP,JPN,Hyōgo,,527596.0,1392003149
Skopje,Skopje,41.9961,21.4317,North Macedonia,MK,MKD,Skopje,primary,526502.0,1807600615
Astrakhan,Astrakhan,46.35,48.035,Russia,RU,RUS,Astrakhanskaya Oblast’,admin,524371.0,1643407929
Montería,Monteria,8.75,-75.8833,Colombia,CO,COL,Córdoba,admin,523150.0,1170855299
Nuremberg,Nuremberg,49.4539,11.0775,Germany,DE,DEU,Bavaria,minor,523026.0,1276166609
Kitchener,Kitchener,43.4186,-80.4728,Canada,CA,CAN,Ontario,,522888.0,1124158530
Yucheng,Yucheng,36.934,116.638,China,CN,CHN,Shandong,minor,522878.0,1156530681
Nāgercoil,Nagercoil,8.175,77.4306,India,IN,IND,Tamil Nādu,,522759.0,1356051733
Agartala,Agartala,23.8314,91.2869,India,IN,IND,Tripura,admin,522613.0,1356148992
Soacha,Soacha,4.5872,-74.2214,Colombia,CO,COL,Cundinamarca,minor,522442.0,1170512000
Buca,Buca,38.35,27.1667,Turkey,TR,TUR,İzmir,minor,522404.0,1792571515
Lyon,Lyon,45.76,4.84,France,FR,FRA,Auvergne-Rhône-Alpes,admin,522250.0,1250196189
Maipú,Maipu,-33.5167,-70.7667,Chile,CL,CHL,Región Metropolitana,,521627.0,1152583016
Arāk,Arak,34.0914,49.6933,Iran,IR,IRN,Markazī,admin,520944.0,1364624691
